HEADER,TimeStamp,Latitude,Longitude,GPS MSL Altitude,WGS84 Altitude,Pressure Altitude,Radar Altitude,Ground Speed,True Airspeed,Indicated Airspeed,Mach Number,Vertical Velocity,True Heading,Track,Drift,Pitch,Roll,Side Slip,Angle of Attack,Ambient Temp,Dew Point,Total Air Temp,Static Press,Dynamic Press,Cabin Press,Wind Speed,Wind Direction,Vertical Wind Speed,Solar Zenith Angle,Sun Elevation Aircraft,Sun Azimuth Ground,Sun Azimuth Aircraft
IWG1,2017-08-18T15:20:00.000Z,34.9206136633,-117.874997249,,698.3,2251.6,-0.9,0,0,0,0,0,197.1,0,0,0.7,-0.9,,,42.6,,42.6,933.5,0,922.9,0,,,65.6,25.7,91,-105.7
IWG1,2017-08-18T15:21:02.000Z,34.9206098076,-117.874996243,,698.3,2253,-1,0,0,0,0,0,197.1,0,0,0.7,-0.9,,,42.7,,42.7,933.4,0,921.2,0,,,65.4,25.9,91.2,-105.5
IWG1,2017-08-18T15:21:15.000Z,34.9206097238,-117.874996411,,698.3,2252,-1,0,0,0,0,0,197.1,0,0,0.7,-0.9,,,42.7,,42.7,933.5,0,921.8,0,,,65.4,25.9,91.2,-105.5
IWG1,2017-08-18T15:21:27.000Z,34.9206093047,-117.874996578,,698.3,2246.7,-1.1,0,0,0,0,0,197.1,0,0,0.7,-0.9,,,42.7,,42.7,933.6,0,921,0,,,65.3,26,91.2,-105.4
IWG1,2017-08-18T15:21:40.000Z,34.920609137,-117.874996662,,698.2,2256.9,-1.2,0,0,0,0,0,197.1,0,0,0.7,-0.9,,,42.7,,42.7,933.3,0,919.7,0,,,65.3,26,91.3,-105.4
IWG1,2017-08-18T15:21:52.000Z,34.9206090532,-117.874996578,,698.1,2249.6,-1.2,0,0,0,0,0,197.1,0,0,0.7,-0.9,,,42.8,,42.8,933.5,0,921.5,0,,,65.2,26,91.3,-105.4
IWG1,2017-08-18T15:22:05.000Z,34.9206088856,-117.874996411,,698.1,2255.4,-1.1,0,0,0,0,0,197.1,0,0,0.7,-0.9,,,42.8,,42.8,933.3,0,919.6,0,,,65.2,26.1,91.3,-105.3
IWG1,2017-08-18T15:22:17.000Z,34.9206088856,-117.874996075,,698,2258.8,-1.1,0,0,0,0,0,197.1,0,0,0.7,-0.9,,,42.9,,42.8,933.2,0,921.9,0,,,65.1,26.1,91.3,-105.3
IWG1,2017-08-18T15:22:30.000Z,34.9206086341,-117.874996075,,697.9,2246.7,-1.2,0,0,0,0,0,197.1,0,0,0.7,-0.9,,,42.9,,42.9,933.6,0,921.8,0,,,65.1,26.2,91.4,-105.3
IWG1,2017-08-18T15:22:42.000Z,34.9206085503,-117.874996075,,697.8,2250.6,-0.8,0,0,0,0,0,197,0,0,0.7,-0.9,,,42.9,,42.9,933.5,0,920.4,0,,,65.1,26.2,91.4,-105.2
IWG1,2017-08-18T15:22:55.000Z,34.920608215,-117.874996075,,697.8,2264.6,-1.3,0,0,0,0,0,197,0,0,0.7,-0.9,,,42.9,,42.9,933,0,920.8,0,,,65,26.3,91.4,-105.2
IWG1,2017-08-18T15:23:07.000Z,34.9206081312,-117.874996243,,697.7,2248.7,-1.3,0,0,0,0,0,197,0,0,0.7,-0.9,,,42.8,,42.8,933.6,0,922.3,0,,,65,26.3,91.5,-105.2
IWG1,2017-08-18T15:23:20.000Z,34.9206080474,-117.874996159,,697.6,2250.1,-1.3,0,0,0,0,0,197,0,0,0.7,-0.9,,,42.8,,42.8,933.5,0,922.6,0,,,64.9,26.3,91.5,-105.2
IWG1,2017-08-18T15:23:32.000Z,34.9206078798,-117.874996159,,697.5,2252,-1.4,0,0,0,0,0,197,0,0,0.7,-0.9,,,42.9,,42.9,933.5,0,919.9,0,,,64.9,26.4,91.5,-105.1
IWG1,2017-08-18T15:23:45.000Z,34.9206077959,-117.874995908,,697.5,2246.2,-0.7,0,0,0,0,0,197,0,0,0.7,-0.9,,,43,,43,933.7,0,921.8,0,,,64.8,26.4,91.6,-105.1
IWG1,2017-08-18T15:23:57.000Z,34.9206079636,-117.874995656,,697.4,2251.6,-1.1,0,0,0,0,0,197,0,0,0.7,-0.9,,,43.1,,43,933.5,0,920.1,0,,,64.8,26.5,91.6,-105.1
IWG1,2017-08-18T15:24:10.000Z,34.920608215,-117.874995321,,697.3,2255.9,-1.5,0,0,0,0,0,197,0,0,0.7,-0.9,,,43.2,,43.1,933.3,0,921.3,0,,,64.8,26.5,91.6,-105
IWG1,2017-08-18T15:24:22.000Z,34.9206082989,-117.87499507,,697.2,2250.1,-1.1,0,0,0,0,0,197,0,0,0.7,-0.9,,,43.2,,43.3,933.5,0,920.5,0,,,64.7,26.5,91.6,-105
IWG1,2017-08-18T15:24:35.000Z,34.920608215,-117.874994902,,697.2,2257.8,-1.2,0,0,0,0,0,197,0,0,0.7,-0.9,,,43.3,,43.3,933.3,0,920.8,0,,,64.7,26.6,91.7,-105
IWG1,2017-08-18T15:24:47.000Z,34.9206082989,-117.874994483,,697.2,2253,-1.5,0,0,0,0,0,197,0,0,0.7,-0.9,,,43.4,,43.4,933.4,0,919.6,0,,,64.6,26.6,91.7,-104.9
IWG1,2017-08-18T15:25:00.000Z,34.9206083827,-117.874994148,,697.2,2252,-1.3,0,0,0,0,0,197,0,0,0.7,-0.9,,,43.4,,43.4,933.5,0,921.5,0,,,64.6,26.7,91.7,-104.9
IWG1,2017-08-18T15:25:12.000Z,34.9206083827,-117.874993812,,697.1,2251.6,-1.3,0,0,0,0,0,197,0,0,0.7,-0.9,,,43.5,,43.5,933.5,0,921.9,0,,,64.5,26.7,91.8,-104.9
IWG1,2017-08-18T15:25:25.000Z,34.9206082989,-117.874993729,,697,2254.5,-1.3,0,0,0,0,0,197,0,0,0.7,-0.9,,,43.5,,43.5,933.4,0,921.6,0,,,64.5,26.8,91.8,-104.8
IWG1,2017-08-18T15:25:37.000Z,34.9206082989,-117.874993645,,697,2252,-1.4,0,0,0,0,0,197,0,0,0.7,-0.9,,,43.5,,43.6,933.5,0,921.2,0,,,64.5,26.8,91.8,-104.8
IWG1,2017-08-18T15:25:50.000Z,34.9206082989,-117.874993729,,696.9,2258.3,-1.4,0,0,0,0,0,197,0,0,0.7,-0.9,,,43.6,,43.5,933.2,0,921.2,0,,,64.4,26.8,91.9,-104.8
IWG1,2017-08-18T15:26:02.000Z,34.9206080474,-117.874993896,,696.9,2247.7,-1.4,0,0,0,0,0,197,0,0,0.7,-0.9,,,43.5,,43.5,933.6,0,921.3,0,,,64.4,26.9,91.9,-104.7
IWG1,2017-08-18T15:26:15.000Z,34.9206080474,-117.874994148,,696.9,2245.3,-1.5,0,0,0,0,0,197,0,0,0.7,-0.9,,,43.5,,43.4,933.7,0,921.3,0,,,64.3,26.9,91.9,-104.7
IWG1,2017-08-18T15:26:27.000Z,34.9206078798,-117.874994231,,696.9,2244.8,-1.6,0,0,0,0,0,197,0,0,0.7,-0.9,,,43.3,,43.3,933.7,0,920.2,0,,,64.3,27,92,-104.7
IWG1,2017-08-18T15:26:40.000Z,34.9206077121,-117.87499465,,696.9,2251.6,-1,0,0,0,0,0,197,0,0,0.7,-0.9,,,43.3,,43.3,933.5,0,921.3,0,,,64.2,27,92,-104.6
IWG1,2017-08-18T15:26:52.000Z,34.9206076283,-117.874994902,,696.9,2246.7,-1.3,0,0,0,0,0,197,0,0,0.7,-0.9,,,43.2,,43.2,933.6,0,920.8,0,,,64.2,27.1,92,-104.6
IWG1,2017-08-18T15:27:05.000Z,34.9206075445,-117.87499507,,696.9,2254.9,-1.3,0,0,0,0,0,197,0,0,0.7,-0.9,,,43.1,,43.1,933.4,0,921.9,0,,,64.2,27.1,92,-104.6
IWG1,2017-08-18T15:27:17.000Z,34.9206074607,-117.87499507,,696.9,2247.7,-1.4,0,0,0,0,0,197,0,0,0.7,-0.9,,,43.1,,43.1,933.6,0,921,0,,,64.1,27.1,92.1,-104.5
IWG1,2017-08-18T15:27:30.000Z,34.9206073768,-117.87499507,,697,2243.8,-1.6,0,0,0,0,0,197,0,0,0.7,-0.9,,,43.1,,43.2,933.7,0,921,0,,,64.1,27.2,92.1,-104.5
IWG1,2017-08-18T15:27:42.000Z,34.920607293,-117.874994986,,697,2253.5,-1.6,0,0,0,0,0,197,0,0,0.7,-0.9,,,43.2,,43.2,933.4,0,921,0,,,64,27.2,92.1,-104.5
IWG1,2017-08-18T15:27:55.000Z,34.920607293,-117.87499465,,697,2240,-1.1,0,0,0,0,0,197,0,0,0.7,-0.9,,,43.2,,43.2,933.9,0,921.5,0,,,64,27.3,92.2,-104.4
IWG1,2017-08-18T15:28:07.000Z,34.9206071254,-117.874994315,,697,2257.4,-1.5,0,0,0,0,0,197,0,0,0.7,-0.9,,,43.3,,43.3,933.3,0,919.4,0,,,64,27.3,92.2,-104.4
IWG1,2017-08-18T15:28:20.000Z,34.9206070416,-117.874993896,,697.1,2245.3,-1.4,0,0,0,0,0,197,0,0,0.7,-0.9,,,43.5,,43.5,933.7,0,921.6,0,,,63.9,27.4,92.2,-104.4
IWG1,2017-08-18T15:28:32.000Z,34.9206072092,-117.874993477,,697.1,2249.6,-1.3,0,0,0,0,0,197,0,0,0.7,-0.9,,,43.6,,43.6,933.5,0,919,0,,,63.9,27.4,92.3,-104.3
IWG1,2017-08-18T15:28:45.000Z,34.9206071254,-117.874993142,,697.1,2250.1,-1.3,0,0,0,0,0,197,0,0,0.7,-0.9,,,43.6,,43.6,933.5,0,920.5,0,,,63.8,27.4,92.3,-104.3
IWG1,2017-08-18T15:28:57.000Z,34.9206070416,-117.874992723,,697.1,2254,-1.4,0,0,0,0,0,197,0,0,0.7,-0.9,,,43.7,,43.7,933.4,0,920.5,0,,,63.8,27.5,92.3,-104.3
IWG1,2017-08-18T15:29:10.000Z,34.9206069577,-117.874992387,,697.1,2245.3,-1.6,0,0,0,0,0,197,0,0,0.7,-0.9,,,43.8,,43.8,933.7,0,920.7,0,,,63.7,27.5,92.4,-104.3
IWG1,2017-08-18T15:29:22.000Z,34.9206067063,-117.874992136,,697.1,2242.9,-1.5,0,0,0,0,0,197,0,0,0.7,-0.9,,,43.9,,43.9,933.8,0,921.8,0,,,63.7,27.6,92.4,-104.2
IWG1,2017-08-18T15:29:35.000Z,34.9206065387,-117.874991968,,697.1,2244.3,-1.2,0,0,0,0,0,197,0,0,0.7,-0.9,,,44.1,,44,933.7,0,920.4,0,,,63.7,27.6,92.4,-104.2
IWG1,2017-08-18T15:29:47.000Z,34.9206027668,-117.874988448,,696.8,2246.7,-1.4,0,0,0,0,0,197,0,0,0.7,-0.9,,,44.1,,44.1,933.6,0,920.5,0,,,63.6,27.6,92.4,-104.2
IWG1,2017-08-18T15:30:00.000Z,34.9205963966,-117.874982413,,696.6,2253.5,-1.6,0,0,0,0,0,197,0,0,0.7,-0.9,,,44.1,,44.1,933.4,0,920.5,0,,,63.6,27.7,92.5,-104.1
IWG1,2017-08-18T15:30:12.000Z,34.920593882,-117.874980737,,696.6,2241.4,-1.4,0,0,0,0,0,197,0,0,0.7,-0.9,,,44.1,,44.1,933.8,0,919.7,0,,,63.5,27.7,92.5,-104.1
IWG1,2017-08-18T15:30:25.000Z,34.9205922894,-117.874978306,,696.7,2248.7,-1.5,0,0,0,0,0,197,0,0,0.7,-0.9,,,44.1,,44.1,933.6,0,920.4,0,,,63.5,27.8,92.5,-104.1
IWG1,2017-08-18T15:30:37.000Z,34.9205913674,-117.874975707,,696.8,2246.2,-1.4,0,0,0,0,0,197,0,0,0.7,-0.9,,,44.1,,44.1,933.7,0,919.4,0,,,63.4,27.8,92.6,-104
IWG1,2017-08-18T15:30:50.000Z,34.9205905292,-117.874973863,,697,2243.4,-1.2,0,0,0,0,0,197,0,0,0.7,-0.9,,,44,,44,933.8,0,923.1,0,,,63.4,27.9,92.6,-104
IWG1,2017-08-18T15:31:02.000Z,34.9205896072,-117.874972355,,697.2,2253.5,-1.6,0,0,0,0,0,197,0,0,0.7,-0.9,,,44,,44,933.4,0,921.9,0,,,63.4,27.9,92.6,-104
IWG1,2017-08-18T15:31:15.000Z,34.9205886852,-117.874971265,,697.4,2248.7,-1.7,0,0,0,0,0,197,0,0,0.7,-0.9,,,44,,44,933.6,0,921.5,0,,,63.3,27.9,92.7,-103.9
IWG1,2017-08-18T15:31:27.000Z,34.9205876794,-117.874970343,,697.5,2256.4,-1.5,0,0,0,0,0,197,0,0,0.7,-0.9,,,44,,44,933.3,0,920.1,0,,,63.3,28,92.7,-103.9
IWG1,2017-08-18T15:31:40.000Z,34.9205877632,-117.874970511,,697.7,2242.9,-1.3,0,0,0,0,0,197,0,0,0.7,-0.9,,,44,,44,933.8,0,920.8,0,,,63.2,28,92.7,-103.9
IWG1,2017-08-18T15:31:52.000Z,34.9205889367,-117.874971014,,697.8,2250.6,-1.5,0,0,0,0,0,197,0,0,0.7,-0.9,,,44.1,,44,933.5,0,919.7,0,,,63.2,28.1,92.8,-103.8
IWG1,2017-08-18T15:32:05.000Z,34.9205897748,-117.874971516,,697.8,2250.1,-1.6,0,0,0,0,0,197,0,0,0.7,-0.9,,,44.1,,44.1,933.5,0,921.3,0,,,63.1,28.1,92.8,-103.8
IWG1,2017-08-18T15:32:17.000Z,34.9205905292,-117.874972187,,697.8,2255.4,-1,0,0,0,0,0,197,0,0,0.7,-0.9,,,44.2,,44.2,933.3,0,920.2,0,,,63.1,28.2,92.8,-103.8
IWG1,2017-08-18T15:32:30.000Z,34.9205911998,-117.874972774,,697.9,2237.1,-1.4,0,0,0,0,0,197,0,0,0.7,-0.9,,,44.3,,44.3,934,0,920.8,0,,,63.1,28.2,92.8,-103.7
IWG1,2017-08-18T15:32:42.000Z,34.9205917865,-117.874973444,,697.9,2251.1,-1.6,0,0,0,0,0,197,0,0,0.7,-0.9,,,44.4,,44.4,933.5,0,920.4,0,,,63,28.2,92.9,-103.7
IWG1,2017-08-18T15:32:55.000Z,34.9205922894,-117.874974115,,697.9,2242.4,-1.5,0,0,0,0,0,197,0,0,0.7,-0.9,,,44.5,,44.5,933.8,0,921.5,0,,,63,28.3,92.9,-103.7
IWG1,2017-08-18T15:33:07.000Z,34.9205927085,-117.87497445,,698,2249.6,-1.8,0,0,0,0,0,197,0,0,0.7,-0.9,,,44.5,,44.5,933.5,0,919.7,0,,,62.9,28.3,92.9,-103.6
IWG1,2017-08-18T15:33:20.000Z,34.92059296,-117.874974953,,698.1,2242.4,-1.3,0,0,0,0,0,197,0,0,0.7,-0.9,,,44.6,,44.5,933.8,0,920.2,0,,,62.9,28.4,93,-103.6
IWG1,2017-08-18T15:33:32.000Z,34.9205931276,-117.874975372,,698.1,2244.8,-1.4,0,0,0,0,0,197,0,0,0.7,-0.9,,,44.6,,44.6,933.7,0,922.1,0,,,62.8,28.4,93,-103.6
IWG1,2017-08-18T15:33:45.000Z,34.9205934629,-117.874975707,,698.1,2242.9,-1.6,0,0,0,0,0,197,0,0,0.7,-0.9,,,44.7,,44.6,933.8,0,919.3,0,,,62.8,28.5,93,-103.5
IWG1,2017-08-18T15:33:57.000Z,34.9205936305,-117.874976127,,698.1,2247.2,-1.5,0,0,0,0,0,197,0,0,0.7,-0.9,,,44.7,,44.7,933.6,0,919.6,0,,,62.8,28.5,93.1,-103.5
IWG1,2017-08-18T15:34:10.000Z,34.920593882,-117.874976629,,698.2,2239.5,-1.5,0,0,0,0,0,197,0,0,0.7,-0.9,,,44.7,,44.7,933.9,0,919.9,0,,,62.7,28.5,93.1,-103.5
IWG1,2017-08-18T15:34:22.000Z,34.9205941334,-117.874976965,,698.2,2242.4,-1.6,0,0,0,0,0,197,0,0,0.7,-0.9,,,44.8,,44.8,933.8,0,920.4,0,,,62.7,28.6,93.1,-103.5
IWG1,2017-08-18T15:34:35.000Z,34.9205945525,-117.874977551,,698.3,2239,-1.1,0,0,0,0,0,197,0,0,0.7,-0.9,,,44.8,,44.8,933.9,0,920.1,0,,,62.6,28.6,93.2,-103.4
IWG1,2017-08-18T15:34:47.000Z,34.9205947202,-117.874977719,,698.4,2239,-1.4,0,0,0,0,0,197,0,0,0.7,-0.9,,,44.9,,44.9,933.9,0,920.1,0,,,62.6,28.7,93.2,-103.4
IWG1,2017-08-18T15:35:00.000Z,34.9205947202,-117.874978054,,698.4,2243.8,-1.1,0,0,0,0,0,197,0,0,0.7,-0.9,,,44.9,,44.9,933.7,0,920.5,0,,,62.5,28.7,93.2,-103.3
IWG1,2017-08-18T15:35:12.000Z,34.920594804,-117.874978557,,698.5,2242.4,-1.6,0,0,0,0,0,197,0,0,0.7,-0.9,,,44.8,,44.8,933.8,0,921.3,0,,,62.5,28.8,93.3,-103.3
IWG1,2017-08-18T15:35:25.000Z,34.920594804,-117.874978892,,698.6,2255.4,-1.4,0,0,0,0,0,197,0,0,0.7,-0.9,,,44.8,,44.8,933.3,0,919.3,0,,,62.4,28.8,93.3,-103.3
IWG1,2017-08-18T15:35:37.000Z,34.9205947202,-117.874979228,,698.6,2242.4,-1.2,0,0,0,0,0,197,0,0,0.7,-0.9,,,44.7,,44.7,933.8,0,919.6,0,,,62.4,28.8,93.3,-103.3
IWG1,2017-08-18T15:35:50.000Z,34.9205947202,-117.874979647,,698.7,2243.8,-1.4,0,0,0,0,0,197,0,0,0.7,-0.9,,,44.7,,44.7,933.7,0,919,0,,,62.4,28.9,93.4,-103.2
IWG1,2017-08-18T15:36:02.000Z,34.920594804,-117.874979982,,698.7,2249.6,-1.3,0,0,0,0,0,197,0,0,0.7,-0.9,,,44.7,,44.7,933.5,0,920.2,0,,,62.3,28.9,93.4,-103.2
IWG1,2017-08-18T15:36:15.000Z,34.9205948878,-117.874980317,,698.8,2250.1,-1.6,0,0,0,0,0,197,0,0,0.7,-0.9,,,44.7,,44.7,933.5,0,919.7,0,,,62.3,29,93.4,-103.2
IWG1,2017-08-18T15:36:27.000Z,34.9205948878,-117.874980737,,698.8,2248.2,-1.5,0,0,0,0,0,197,0,0,0.7,-0.9,,,44.7,,44.7,933.6,0,919.9,0,,,62.2,29,93.4,-103.1
IWG1,2017-08-18T15:36:40.000Z,34.920594804,-117.874980988,,698.8,2247.7,-1.3,0,0,0,0,0,197,0,0,0.7,-0.9,,,44.7,,44.7,933.6,0,919.7,0,,,62.2,29.1,93.5,-103.1
IWG1,2017-08-18T15:36:52.000Z,34.9205945525,-117.874981323,,698.8,2241.4,-1.3,0,0,0,0,0,197,0,0,0.7,-0.9,,,44.6,,44.6,933.8,0,920.7,0,,,62.1,29.1,93.5,-103.1
IWG1,2017-08-18T15:37:05.000Z,34.9205943011,-117.874981491,,698.8,2245.8,-1.3,0,0,0,0,0,197,0,0,0.7,-0.9,,,44.5,,44.5,933.7,0,920.5,0,,,62.1,29.1,93.5,-103
IWG1,2017-08-18T15:37:17.000Z,34.9205941334,-117.874981491,,698.9,2240.9,-1.5,0,0,0,0,0,197,0,0,0.7,-0.9,,,44.4,,44.4,933.8,0,920.1,0,,,62.1,29.2,93.6,-103
IWG1,2017-08-18T15:37:30.000Z,34.920593882,-117.874981575,,698.9,2251.6,-1.5,0,0,0,0,0,197,0,0,0.7,-0.9,,,44.3,,44.3,933.5,0,919.6,0,,,62,29.2,93.6,-103
IWG1,2017-08-18T15:37:42.000Z,34.9205937143,-117.874981742,,698.9,2248.2,-1.4,0,0,0,0,0,197,0,0,0.7,-0.9,,,44.2,,44.2,933.6,0,919.7,0,,,62,29.3,93.6,-102.9
IWG1,2017-08-18T15:37:55.000Z,34.9205937143,-117.87498191,,698.9,2238.5,-1.2,0,0,0,0,0,197,0,0,0.7,-0.9,,,44.1,,44.1,933.9,0,920.4,0,,,61.9,29.3,93.7,-102.9
IWG1,2017-08-18T15:38:07.000Z,34.9205937982,-117.874981994,,699,2247.7,-1.3,0,0,0,0,0,197,0,0,0.7,-0.9,,,44,,44,933.6,0,920.1,0,,,61.9,29.4,93.7,-102.9
IWG1,2017-08-18T15:38:20.000Z,34.9205937982,-117.874982078,,699,2243.8,-1,0,0,0,0,0,197,0,0,0.7,-0.9,,,44,,44,933.7,0,921,0,,,61.8,29.4,93.7,-102.8
IWG1,2017-08-18T15:38:32.000Z,34.920593882,-117.874982078,,699.1,2243.4,-0.9,0,0,0,0,0,197,0,0,0.7,-0.9,,,44.1,,44.1,933.8,0,921.2,0,,,61.8,29.4,93.8,-102.8
IWG1,2017-08-18T15:38:45.000Z,34.920593882,-117.87498191,,699.1,2241.9,-1.3,0,0,0,0,0,197,0,0,0.7,-0.9,,,44.1,,44.2,933.8,0,919.6,0,,,61.8,29.5,93.8,-102.8
IWG1,2017-08-18T15:38:57.000Z,34.9205937982,-117.874981575,,699.1,2240.5,-1.2,0,0,0,0,0,197,0,0,0.7,-0.9,,,44.2,,44.3,933.9,0,920.5,0,,,61.7,29.5,93.8,-102.7
IWG1,2017-08-18T15:39:10.000Z,34.9205937143,-117.874981407,,699.1,2244.8,-1.3,0,0,0,0,0,197,0,0,0.7,-0.9,,,44.4,,44.3,933.7,0,918.8,0,,,61.7,29.6,93.9,-102.7
IWG1,2017-08-18T15:39:22.000Z,34.9205937982,-117.874981239,,699.1,2246.7,-1.2,0,0,0,0,0,197,0,0,0.7,-0.9,,,44.5,,44.5,933.6,0,920.4,0,,,61.6,29.6,93.9,-102.7
IWG1,2017-08-18T15:39:35.000Z,34.920593882,-117.874981156,,699.1,2248.2,-1.2,0,0,0,0,0,197,0,0,0.7,-0.9,,,44.6,,44.6,933.6,0,919.4,0,,,61.6,29.6,93.9,-102.7
IWG1,2017-08-18T15:39:47.000Z,34.920593882,-117.874981239,,699.1,2240.5,-1.2,0,0,0,0,0,197,0,0,0.7,-0.9,,,44.7,,44.7,933.9,0,920.7,0,,,61.6,29.7,93.9,-102.6
IWG1,2017-08-18T15:40:00.000Z,34.9205940496,-117.874981072,,699.1,2237.6,-1.2,0,0,0,0,0,197,0,0,0.7,-0.9,,,44.8,,44.8,934,0,920.7,0,,,61.5,29.7,94,-102.6
IWG1,2017-08-18T15:40:12.000Z,34.9205943849,-117.874980988,,699.1,2247.7,-1.2,0,0,0,0,0,197,0,0,0.7,-0.9,,,44.9,,44.8,933.6,0,920.2,0,,,61.5,29.8,94,-102.6
IWG1,2017-08-18T15:40:25.000Z,34.9205944687,-117.874980904,,699.1,2246.2,-0.9,0,0,0,0,0,197,0,0,0.7,-0.9,,,44.9,,44.9,933.7,0,920.4,0,,,61.4,29.8,94,-102.5
IWG1,2017-08-18T15:40:37.000Z,34.9205944687,-117.874980737,,699.1,2247.7,-0.9,0,0,0,0,0,197,0,0,0.7,-0.9,,,45,,44.9,933.6,0,919,0,,,61.4,29.9,94.1,-102.5
IWG1,2017-08-18T15:40:50.000Z,34.9205943849,-117.874980653,,699.1,2249.6,-1.5,0,0,0,0,0,197,0,0,0.7,-0.9,,,45,,45,933.5,0,920.5,0,,,61.3,29.9,94.1,-102.5
IWG1,2017-08-18T15:41:02.000Z,34.9205941334,-117.874980569,,699.1,2242.9,-0.8,0,0,0,0,0,197,0,0,0.7,-0.9,,,45,,45,933.8,0,919.1,0,,,61.3,29.9,94.1,-102.4
IWG1,2017-08-18T15:41:15.000Z,34.9205941334,-117.874980653,,699.1,2245.3,-1.1,0,0,0,0,0,197,0,0,0.7,-0.9,,,44.9,,45,933.7,0,920.8,0,,,61.3,30,94.2,-102.4
IWG1,2017-08-18T15:41:27.000Z,34.9205941334,-117.874980485,,699.1,2245.8,-1.3,0,0,0,0,0,197,0,0,0.7,-0.9,,,44.9,,44.9,933.7,0,920.5,0,,,61.2,30,94.2,-102.4
IWG1,2017-08-18T15:41:40.000Z,34.9205943011,-117.874980485,,699.1,2237.6,-1,0,0,0,0,0,197,0,0,0.7,-0.9,,,44.9,,45,934,0,919.6,0,,,61.2,30.1,94.2,-102.3
IWG1,2017-08-18T15:41:52.000Z,34.9205944687,-117.874980485,,699.1,2239,-1.4,0,0,0,0,0,197,0,0,0.7,-0.9,,,45,,45,933.9,0,920.1,0,,,61.1,30.1,94.3,-102.3
IWG1,2017-08-18T15:42:05.000Z,34.9205944687,-117.874980485,,699.1,2244.3,-1,0,0,0,0,0,197,0,0,0.7,-0.9,,,45.1,,45,933.7,0,920.8,0,,,61.1,30.2,94.3,-102.3
IWG1,2017-08-18T15:42:17.000Z,34.9205944687,-117.874980569,,699.1,2243.8,-1.1,0,0,0,0,0,197,0,0,0.7,-0.9,,,45.1,,45.1,933.7,0,919.6,0,,,61,30.2,94.3,-102.2
IWG1,2017-08-18T15:42:30.000Z,34.9205944687,-117.874980653,,699,2247.7,-0.9,0,0,0,0,0,197,0,0,0.7,-0.9,,,45.1,,45.1,933.6,0,921.3,0,,,61,30.2,94.4,-102.2
IWG1,2017-08-18T15:42:42.000Z,34.9205946364,-117.874980401,,699,2248.7,-0.8,0,0,0,0,0,197,0,0,0.7,-0.9,,,45.2,,45.2,933.6,0,919.3,0,,,61,30.3,94.4,-102.2
IWG1,2017-08-18T15:42:55.000Z,34.9205947202,-117.874980317,,698.9,2241.9,-1.2,0,0,0,0,0,197,0,0,0.7,-0.9,,,45.2,,45.2,933.8,0,919.4,0,,,60.9,30.3,94.4,-102.1
IWG1,2017-08-18T15:43:07.000Z,34.9205949716,-117.874980317,,698.9,2242.4,-1.2,0,0,0,0,0,197,0,0,0.7,-0.9,,,45.2,,45.2,933.8,0,918.6,0,,,60.9,30.4,94.5,-102.1
IWG1,2017-08-18T15:43:20.000Z,34.9205952231,-117.874980234,,698.9,2246.7,-1.1,0,0,0,0,0,197,0,0,0.7,-0.9,,,45.3,,45.3,933.6,0,920.2,0,,,60.8,30.4,94.5,-102.1
IWG1,2017-08-18T15:43:32.000Z,34.9205953907,-117.874980234,,698.9,2245.8,-1.3,0,0,0,0,0,197,0,0,0.7,-0.9,,,45.4,,45.4,933.7,0,921.2,0,,,60.8,30.5,94.5,-102
IWG1,2017-08-18T15:43:45.000Z,34.9205956422,-117.87498015,,698.9,2244.8,-1.7,0,0,0,0,0,197,0,0,0.7,-0.9,,,45.5,,45.5,933.7,0,919,0,,,60.7,30.5,94.5,-102
IWG1,2017-08-18T15:43:57.000Z,34.920595726,-117.874980066,,699,2243.8,-1.5,0,0,0,0,0,197,0,0,0.7,-0.9,,,45.6,,45.6,933.7,0,919.4,0,,,60.7,30.5,94.6,-102
IWG1,2017-08-18T15:44:10.000Z,34.9205958098,-117.874979898,,699,2239,-1.1,0,0,0,0,0,197,0,0,0.7,-0.9,,,45.6,,45.6,933.9,0,920.2,0,,,60.7,30.6,94.6,-101.9
IWG1,2017-08-18T15:44:22.000Z,34.9205958936,-117.874979731,,699,2240,-0.8,0,0,0,0,0,197,0,0,0.7,-0.9,,,45.6,,45.6,933.9,0,920.1,0,,,60.6,30.6,94.6,-101.9
IWG1,2017-08-18T15:44:35.000Z,34.9205959775,-117.874979479,,699,2239.5,-1.1,0,0,0,0,0,197,0,0,0.7,-0.9,,,45.5,,45.5,933.9,0,921.2,0,,,60.6,30.7,94.7,-101.9
IWG1,2017-08-18T15:44:47.000Z,34.9205960613,-117.874979228,,699,2237.1,-1.1,0,0,0,0,0,197,0,0,0.7,-0.9,,,45.5,,45.5,934,0,919.9,0,,,60.5,30.7,94.7,-101.8
IWG1,2017-08-18T15:45:00.000Z,34.9205962289,-117.874978976,,699,2242.9,-1,0,0,0,0,0,197,0,0,0.7,-0.9,,,45.4,,45.4,933.8,0,920.8,0,,,60.5,30.8,94.7,-101.8
IWG1,2017-08-18T15:45:12.000Z,34.9205963127,-117.874978725,,699,2243.8,-1.2,0,0,0,0,0,197,0,0,0.7,-0.9,,,45.3,,45.3,933.7,0,919,0,,,60.4,30.8,94.8,-101.8
IWG1,2017-08-18T15:45:25.000Z,34.9205963966,-117.874978725,,699,2239.5,-1,0,0,0,0,0,197,0,0,0.7,-0.9,,,45.3,,45.3,933.9,0,918.6,0,,,60.4,30.8,94.8,-101.7
IWG1,2017-08-18T15:45:37.000Z,34.920596648,-117.874978557,,699,2246.7,-1.1,0,0,0,0,0,197,0,0,0.7,-0.9,,,45.4,,45.4,933.6,0,919.9,0,,,60.4,30.9,94.8,-101.7
IWG1,2017-08-18T15:46:02.000Z,34.9205970671,-117.874978306,,699,2250.6,-1,0,0,0,0,0,197,0,0,0.7,-0.9,,,45.6,,45.5,933.5,0,919.9,0,,,60.3,31,94.9,-101.7
IWG1,2017-08-18T15:46:15.000Z,34.9205972347,-117.874978054,,699,2244.8,-1.3,0,0,0,0,0,197,0,0,0.7,-0.9,,,45.6,,45.6,933.7,0,920.7,0,,,60.2,31,94.9,-101.6
IWG1,2017-08-18T15:46:27.000Z,34.9205973186,-117.87497797,,699,2239.5,-1.1,0,0,0,0,0,197,0,0,0.7,-0.9,,,45.5,,45.5,933.9,0,920.7,0,,,60.2,31,95,-101.6
IWG1,2017-08-18T15:46:40.000Z,34.9205974862,-117.874977887,,699,2246.2,-1.3,0,0,0,0,0,197,0,0,0.7,-0.9,,,45.4,,45.4,933.7,0,920.2,0,,,60.1,31.1,95,-101.5
IWG1,2017-08-18T15:46:52.000Z,34.9205976538,-117.874977803,,699,2242.4,-1,0,0,0,0,0,197,0,0,0.7,-0.9,,,45.3,,45.3,933.8,0,920.4,0,,,60.1,31.1,95,-101.5
IWG1,2017-08-18T15:47:05.000Z,34.9205979053,-117.874977803,,699,2243.4,-1.2,0,0,0,0,0,197,0,0,0.7,-0.9,,,45.1,,45.1,933.8,0,920.1,0,,,60.1,31.2,95.1,-101.5
IWG1,2017-08-18T15:47:17.000Z,34.9205979891,-117.874977635,,699,2243.8,-1.4,0,0,0,0,0,197,0,0,0.7,-0.9,,,45.1,,45.1,933.7,0,919.1,0,,,60,31.2,95.1,-101.5
IWG1,2017-08-18T15:47:30.000Z,34.9205981568,-117.874977635,,699,2238.5,-1.2,0,0,0,0,0,197,0,0,0.7,-0.9,,,45.1,,45.1,933.9,0,919.1,0,,,60,31.3,95.1,-101.4
IWG1,2017-08-18T15:47:42.000Z,34.9205984082,-117.874977468,,699.1,2245.3,-1.3,0,0,0,0,0,197,0,0,0.7,-0.9,,,45.1,,45.2,933.7,0,919.7,0,,,59.9,31.3,95.2,-101.4
IWG1,2017-08-18T15:47:55.000Z,34.9205985758,-117.874977468,,699.1,2240,-1.1,0,0,0,0,0,197,0,0,0.7,-0.9,,,45.2,,45.2,933.9,0,920.1,0,,,59.9,31.3,95.2,-101.4
IWG1,2017-08-18T15:48:07.000Z,34.9205987435,-117.874977384,,699.1,2242.9,-1,0,0,0,0,0,197,0,0,0.7,-0.9,,,45.3,,45.3,933.8,0,920.4,0,,,59.8,31.4,95.2,-101.3
IWG1,2017-08-18T15:48:20.000Z,34.9205989111,-117.874977468,,699.1,2246.7,-1.3,0,0,0,0,0,197,0,0,0.7,-0.9,,,45.3,,45.4,933.6,0,920.2,0,,,59.8,31.4,95.3,-101.3
IWG1,2017-08-18T15:48:32.000Z,34.9205989111,-117.874977719,,699.1,2238,-1.1,0,0,0,0,0,197,0,0,0.7,-0.9,,,45.4,,45.4,933.9,0,919.4,0,,,59.8,31.5,95.3,-101.3
IWG1,2017-08-18T15:48:45.000Z,34.9205989111,-117.874977719,,699.2,2241.4,-0.9,0,0,0,0,0,197,0,0,0.7,-0.9,,,45.4,,45.4,933.8,0,919.4,0,,,59.7,31.5,95.3,-101.2
IWG1,2017-08-18T15:48:57.000Z,34.9205990788,-117.874977803,,699.2,2238,-1.1,0,0,0,0,0,197,0,0,0.7,-0.9,,,45.5,,45.5,933.9,0,919.9,0,,,59.7,31.6,95.3,-101.2
IWG1,2017-08-18T15:49:10.000Z,34.9205990788,-117.874977803,,699.2,2238.5,-1.3,0,0,0,0,0,197,0,0,0.7,-0.9,,,45.4,,45.4,933.9,0,919,0,,,59.6,31.6,95.4,-101.2
IWG1,2017-08-18T15:49:22.000Z,34.9205990788,-117.874977803,,699.2,2243.4,-1,0,0,0,0,0,197,0,0,0.7,-0.9,,,45.5,,45.4,933.8,0,919.3,0,,,59.6,31.6,95.4,-101.1
IWG1,2017-08-18T15:49:35.000Z,34.9205991626,-117.87497797,,699.3,2245.3,-1.3,0,0,0,0,0,197,0,0,0.7,-0.9,,,45.5,,45.5,933.7,0,918,0,,,59.6,31.7,95.4,-101.1
IWG1,2017-08-18T15:49:47.000Z,34.9205992464,-117.874978222,,699.3,2239,-1.1,0,0,0,0,0,197,0,0,0.7,-0.9,,,45.5,,45.5,933.9,0,919.9,0,,,59.5,31.7,95.5,-101.1
IWG1,2017-08-18T15:50:00.000Z,34.920599414,-117.87497839,,699.3,2238.5,-1.1,0,0,0,0,0,197,0,0,0.7,-0.9,,,45.5,,45.5,933.9,0,919.7,0,,,59.5,31.8,95.5,-101
IWG1,2017-08-18T15:50:12.000Z,34.9205994979,-117.87497839,,699.4,2241.9,-1.1,0,0,0,0,0,197.1,0,0,0.7,-0.9,,,45.5,,45.5,933.8,0,920.4,0,,,59.4,31.8,95.5,-101
IWG1,2017-08-18T15:50:25.000Z,34.9205995817,-117.87497839,,699.4,2240.9,-1.2,0,0,0,0,0,197,0,0,0.7,-0.9,,,45.6,,45.6,933.8,0,919.6,0,,,59.4,31.8,95.6,-101
IWG1,2017-08-18T15:50:37.000Z,34.9205998331,-117.874978473,,699.4,2247.2,-1.2,0,0,0,0,0,197.1,0,0,0.7,-0.9,,,45.6,,45.6,933.6,0,920.1,0,,,59.3,31.9,95.6,-100.9
IWG1,2017-08-18T15:50:50.000Z,34.9206000846,-117.874978725,,699.4,2246.2,-1.2,0,0,0,0,0,197,0,0,0.7,-0.9,,,45.6,,45.6,933.7,0,916.9,0,,,59.3,31.9,95.6,-100.9
IWG1,2017-08-18T15:51:02.000Z,34.9206005875,-117.874978641,,699.4,2247.2,-0.6,0,0,0,0,0,197.1,0,0,0.7,-0.9,,,45.6,,45.6,933.6,0,919.1,0,,,59.3,32,95.7,-100.9
IWG1,2017-08-18T15:51:15.000Z,34.9206010066,-117.874979814,,699.4,2246.7,-1.1,0,0,0,0,0,197,0,0,0.7,-0.9,,,45.5,,45.5,933.6,0,918.5,0,,,59.2,32,95.7,-100.8
IWG1,2017-08-18T15:51:27.000Z,34.9206016771,-117.874979898,,699.4,2242.9,-1.2,0,0,0,0,0,197,0,0,0.7,-0.9,,,45.4,,45.4,933.8,0,918.6,0,,,59.2,32.1,95.7,-100.8
IWG1,2017-08-18T15:51:40.000Z,34.9206022639,-117.874980485,,699.4,2249.6,-0.9,0,0,0,0,0,197.1,0,0,0.7,-0.9,,,45.3,,45.3,933.5,0,920.5,0,,,59.1,32.1,95.8,-100.8
IWG1,2017-08-18T15:51:52.000Z,34.9206025992,-117.874981072,,699.4,2248.2,-1.2,0,0,0,0,0,197.1,0,0,0.7,-0.9,,,45.2,,45.2,933.6,0,919.4,0,,,59.1,32.1,95.8,-100.7
IWG1,2017-08-18T15:52:05.000Z,34.9206031859,-117.874981575,,699.4,2244.8,-1,0,0,0,0,0,197.1,0,0,0.7,-0.9,,,45.2,,45.2,933.7,0,918.8,0,,,59,32.2,95.8,-100.7
IWG1,2017-08-18T15:52:17.000Z,34.9206033535,-117.874982161,,699.4,2244.3,-1,0,0,0,0,0,197.1,0,0,0.7,-0.9,,,45.2,,45.2,933.7,0,920.4,0,,,59,32.2,95.9,-100.7
IWG1,2017-08-18T15:52:30.000Z,34.920603605,-117.874982748,,699.4,2235.2,-1.1,0,0,0,0,0,197.1,0,0,0.7,-0.9,,,45.2,,45.3,934,0,919.4,0,,,59,32.3,95.9,-100.6
IWG1,2017-08-18T15:52:42.000Z,34.9206037726,-117.874983083,,699.4,2242.9,-1.4,0,0,0,0,0,197.1,0,0,0.7,-0.9,,,45.3,,45.3,933.8,0,919.9,0,,,58.9,32.3,95.9,-100.6
IWG1,2017-08-18T15:52:55.000Z,34.9206038564,-117.874983251,,699.4,2244.3,-1.4,0,0,0,0,0,197.1,0,0,0.7,-0.9,,,45.4,,45.4,933.7,0,920.7,0,,,58.9,32.4,96,-100.6
IWG1,2017-08-18T15:53:07.000Z,34.9206039403,-117.874983754,,699.4,2244.3,-1.2,0,0,0,0,0,197.1,0,0,0.7,-0.9,,,45.5,,45.5,933.7,0,920.5,0,,,58.8,32.4,96,-100.5
IWG1,2017-08-18T15:53:20.000Z,34.9206041079,-117.874984089,,699.4,2244.3,-1.7,0,0,0,0,0,197.1,0,0,0.7,-0.9,,,45.5,,45.5,933.7,0,920.5,0,,,58.8,32.4,96,-100.5
IWG1,2017-08-18T15:53:32.000Z,34.9206047785,-117.874984844,,699.3,2236.1,-1.2,0,0,0,0,0,197.1,0,0,0.7,-0.9,,,45.6,,45.6,934,0,919.9,0,,,58.7,32.5,96.1,-100.5
IWG1,2017-08-18T15:53:45.000Z,34.9206051137,-117.874985011,,699.3,2242.9,-1.2,0,0,0,0,0,197.1,0,0,0.7,-0.9,,,45.7,,45.7,933.8,0,919.4,0,,,58.7,32.5,96.1,-100.4
IWG1,2017-08-18T15:53:57.000Z,34.920605449,-117.874985095,,699.3,2250.6,-1.1,0,0,0,0,0,197.1,0,0,0.7,-0.9,,,45.7,,45.8,933.5,0,920.2,0,,,58.7,32.6,96.1,-100.4
IWG1,2017-08-18T15:54:10.000Z,34.9206059519,-117.874985179,,699.3,2238,-1.3,0,0,0,0,0,197.1,0,0,0.7,-0.9,,,45.8,,45.8,933.9,0,920.2,0,,,58.6,32.6,96.2,-100.4
IWG1,2017-08-18T15:54:22.000Z,34.9206062872,-117.874985095,,699.2,2247.2,-0.9,0,0,0,0,0,197.1,0,0,0.7,-0.9,,,45.9,,45.9,933.6,0,919.1,0,,,58.6,32.6,96.2,-100.3
IWG1,2017-08-18T15:54:35.000Z,34.9206067063,-117.874985011,,699.2,2243.4,-1.2,0,0,0,0,0,197.1,0,0,0.7,-0.9,,,46,,46,933.8,0,920.4,0,,,58.5,32.7,96.2,-100.3
IWG1,2017-08-18T15:54:47.000Z,34.9206068739,-117.874984592,,699.1,2248.7,-1.3,0,0,0,0,0,197.1,0,0,0.7,-0.9,,,46.1,,46.1,933.6,0,919.4,0,,,58.5,32.7,96.3,-100.3
IWG1,2017-08-18T15:55:00.000Z,34.9206071254,-117.874984341,,699.1,2243.4,-1.2,0,0,0,0,0,197.1,0,0,0.7,-0.9,,,46.1,,46.1,933.8,0,919.9,0,,,58.4,32.8,96.3,-100.2
IWG1,2017-08-18T15:55:12.000Z,34.9206075445,-117.874984005,,699.1,2239.5,-1.2,0,0,0,0,0,197.1,0,0,0.7,-0.9,,,46.1,,46.1,933.9,0,918.2,0,,,58.4,32.8,96.3,-100.2
IWG1,2017-08-18T15:55:25.000Z,34.9206077959,-117.874983838,,699.1,2244.3,-1,0,0,0,0,0,197.1,0,0,0.7,-0.9,,,46.2,,46.2,933.7,0,919.6,0,,,58.4,32.9,96.4,-100.2
IWG1,2017-08-18T15:55:37.000Z,34.9206079636,-117.874983838,,699.1,2240,-1.6,0,0,0,0,0,197.1,0,0,0.7,-0.9,,,46.2,,46.3,933.9,0,920.5,0,,,58.3,32.9,96.4,-100.1
IWG1,2017-08-18T15:55:50.000Z,34.9206082989,-117.874983838,,699.1,2241.9,-1.1,0,0,0,0,0,197.1,0,0,0.7,-0.9,,,46.3,,46.3,933.8,0,919.4,0,,,58.3,32.9,96.4,-100.1
IWG1,2017-08-18T15:56:02.000Z,34.9206085503,-117.874983754,,699.1,2240.5,-1.1,0,0,0,0,0,197.1,0,0,0.7,-0.9,,,46.4,,46.3,933.9,0,920.7,0,,,58.2,33,96.5,-100.1
IWG1,2017-08-18T15:56:15.000Z,34.9206088018,-117.874983754,,699.1,2240.5,-1.2,0,0,0,0,0,197.1,0,0,0.7,-0.9,,,46.4,,46.4,933.9,0,919.3,0,,,58.2,33,96.5,-100
IWG1,2017-08-18T15:56:27.000Z,34.9206090532,-117.874983754,,699,2246.2,-1.1,0,0,0,0,0,197.1,0,0,0.7,-0.9,,,46.5,,46.5,933.7,0,920.2,0,,,58.2,33.1,96.5,-100
IWG1,2017-08-18T15:56:40.000Z,34.9206092209,-117.874983838,,699,2245.3,-1,0,0,0,0,0,197.1,0,0,0.7,-0.9,,,46.6,,46.6,933.7,0,918.5,0,,,58.1,33.1,96.6,-100
IWG1,2017-08-18T15:56:52.000Z,34.920609137,-117.874984089,,699.1,2245.8,-1.3,0,0,0,0,0,197.1,0,0,0.7,-0.9,,,46.7,,46.7,933.7,0,918.3,0,,,58.1,33.2,96.6,-99.9
IWG1,2017-08-18T15:57:05.000Z,34.9206092209,-117.874984257,,699.1,2240.9,-1.2,0,0,0,0,0,197.1,0,0,0.7,-0.9,,,46.8,,46.8,933.8,0,919.9,0,,,58,33.2,96.6,-99.9
IWG1,2017-08-18T15:57:17.000Z,34.9206093885,-117.874984592,,699.1,2244.8,-1,0,0,0,0,0,197.1,0,0,0.7,-0.9,,,46.8,,46.8,933.7,0,920.5,0,,,58,33.2,96.6,-99.9
IWG1,2017-08-18T15:57:30.000Z,34.9206094723,-117.874984844,,699,2247.7,-1.3,0,0,0,0,0,197.1,0,0,0.7,-0.9,,,46.8,,46.8,933.6,0,919.9,0,,,57.9,33.3,96.7,-99.8
IWG1,2017-08-18T15:57:42.000Z,34.9206093047,-117.874985011,,699,2246.7,-1.2,0,0,0,0,0,197.1,0,0,0.7,-0.9,,,46.8,,46.8,933.6,0,918.3,0,,,57.9,33.3,96.7,-99.8
IWG1,2017-08-18T15:57:55.000Z,34.9206094723,-117.874985263,,699,2240.5,-0.9,0,0,0,0,0,197.1,0,0,0.7,-0.9,,,46.8,,46.7,933.9,0,919.6,0,,,57.9,33.4,96.7,-99.8
IWG1,2017-08-18T15:58:07.000Z,34.92060964,-117.87498543,,699,2242.9,-1.1,0,0,0,0,0,197.1,0,0,0.7,-0.9,,,46.8,,46.7,933.8,0,918.2,0,,,57.8,33.4,96.8,-99.7
IWG1,2017-08-18T15:58:20.000Z,34.92060964,-117.87498543,,699,2240,-0.7,0,0,0,0,0,197.1,0,0,0.7,-0.9,,,46.7,,46.7,933.9,0,918.6,0,,,57.8,33.4,96.8,-99.7
IWG1,2017-08-18T15:58:32.000Z,34.92060964,-117.87498543,,699,2238,-1,0,0,0,0,0,197.1,0,0,0.7,-0.9,,,46.7,,46.7,933.9,0,919,0,,,57.7,33.5,96.8,-99.7
IWG1,2017-08-18T15:58:45.000Z,34.9206098076,-117.874985514,,699,2244.3,-1.1,0,0,0,0,0,197.1,0,0,0.7,-0.9,,,46.8,,46.8,933.7,0,917.8,0,,,57.7,33.5,96.9,-99.6
IWG1,2017-08-18T15:58:57.000Z,34.9206098914,-117.87498543,,699,2238,-1,0,0,0,0,0,197.1,0,0,0.7,-0.9,,,46.8,,46.8,933.9,0,920.2,0,,,57.6,33.6,96.9,-99.6
IWG1,2017-08-18T15:59:10.000Z,34.9206099752,-117.874985514,,699,2244.3,-1.1,0,0,0,0,0,197.1,0,0,0.7,-0.9,,,46.9,,46.9,933.7,0,919.4,0,,,57.6,33.6,96.9,-99.6
IWG1,2017-08-18T15:59:22.000Z,34.9206100591,-117.874985514,,699,2245.8,-1.1,0,0,0,0,0,197.1,0,0,0.7,-0.9,,,46.9,,46.9,933.7,0,918.6,0,,,57.6,33.7,97,-99.5
IWG1,2017-08-18T15:59:35.000Z,34.9206103105,-117.874985598,,699,2235.6,-1.2,0,0,0,0,0,197.1,0,0,0.7,-0.9,,,47,,47,934,0,919.3,0,,,57.5,33.7,97,-99.5
IWG1,2017-08-18T15:59:47.000Z,34.9206104781,-117.874985514,,699,2241.4,-0.9,0,0,0,0,0,197.1,0,0,0.7,-0.9,,,47,,47,933.8,0,920.7,0,,,57.5,33.7,97,-99.5
IWG1,2017-08-18T16:00:00.000Z,34.920610562,-117.87498543,,699,2244.3,-0.9,0,0,0,0,0,197.1,0,0,0.7,-0.9,,,46.9,,47,933.7,0,920.1,0,,,57.4,33.8,97.1,-99.4
IWG1,2017-08-18T16:00:12.000Z,34.920610562,-117.874985095,,699,2241.4,-1.2,0,0,0,0,0,197.1,0,0,0.7,-0.9,,,46.9,,47,933.8,0,919,0,,,57.4,33.8,97.1,-99.4
IWG1,2017-08-18T16:00:25.000Z,34.9206104781,-117.874984927,,699,2238.5,-1,0,0,0,0,0,197.1,0,0,0.7,-0.9,,,47,,46.9,933.9,0,920.5,0,,,57.3,33.9,97.1,-99.4
IWG1,2017-08-18T16:00:37.000Z,34.9206104781,-117.874984927,,699,2244.3,-0.9,0,0,0,0,0,197.1,197,0,0.7,-0.9,,,46.9,,46.9,933.7,0,919.1,0,,,57.3,33.9,97.2,-99.3
IWG1,2017-08-18T16:00:50.000Z,34.9206103943,-117.874984844,,699,2238.5,-1.3,0,0,0,0,0,197.1,197,0,0.7,-0.9,,,47,,47,933.9,0,918.8,0,,,57.3,34,97.2,-99.3
IWG1,2017-08-18T16:01:02.000Z,34.9206103105,-117.87498476,,699,2236.1,-0.8,0,0,0,0,0,197.1,197,0,0.7,-0.9,,,47,,47,934,0,920.2,0,,,57.2,34,97.2,-99.2
IWG1,2017-08-18T16:01:15.000Z,34.9206103105,-117.87498476,,699,2238,-1,0,0,0,0,0,197.1,197,0,0.7,-0.9,,,47,,47,933.9,0,917.5,0,,,57.2,34,97.3,-99.2
IWG1,2017-08-18T16:01:27.000Z,34.9206103943,-117.874984844,,699,2245.3,-1.4,0,0,0,0,0,197.1,197,0,0.7,-0.9,,,47.1,,47,933.7,0,918,0,,,57.1,34.1,97.3,-99.2
IWG1,2017-08-18T16:01:39.000Z,34.9206103943,-117.874984844,,699,2238.5,-0.8,0,0,0,0,0,197.1,197,0,0.7,-0.9,,,47.1,,47.1,933.9,0,918.6,0,,,57.1,34.1,97.3,-99.1
IWG1,2017-08-18T16:01:42.000Z,34.9206103943,-117.874984844,,699,2244.3,-1.2,0,0,0,0,0,197.1,197,0,0.7,-0.9,,,47.1,,47.1,933.7,0,918.6,0,,,57.1,34.1,97.4,-99.1
IWG1,2017-08-18T16:01:46.000Z,34.9206104781,-117.874984844,,699,2236.1,-0.9,0,0,0,0,0,197.1,197,0,0.7,-0.9,,,47.2,,47.2,934,0,919.4,0,,,57.1,34.1,97.4,-99.1
IWG1,2017-08-18T16:01:49.000Z,34.9206104781,-117.874984844,,699,2250.6,-0.9,0,0,0,0,0,197.1,197,0,0.7,-0.9,,,47.2,,47.1,933.5,0,917.2,0,,,57.1,34.1,97.4,-99.1
IWG1,2017-08-18T16:01:52.000Z,34.9206103943,-117.874984927,,699,2240.9,-1.2,0,0,0,0,0,197.1,197,0,0.7,-0.9,,,47.2,,47.2,933.8,0,918.2,0,,,57,34.2,97.4,-99.1
IWG1,2017-08-18T16:01:55.000Z,34.9206103943,-117.874984927,,699,2239.5,-1.2,0,0,0,0,0,197.1,197,0,0.7,-0.9,,,47.2,,47.2,933.9,0,918.2,0,,,57,34.2,97.4,-99.1
IWG1,2017-08-18T16:01:59.000Z,34.9206103943,-117.874985011,,699,2234.7,-1.2,0,0,0,0,0,197.1,197,0,0.7,-0.9,,,47.2,,47.2,934.1,0,918.3,0,,,57,34.2,97.4,-99.1
IWG1,2017-08-18T16:02:02.000Z,34.9206103105,-117.874985011,,699,2247.7,-1.3,0,0,0,0,0,197.1,197,0,0.7,-0.9,,,47.2,,47.2,933.6,0,918.3,0,,,57,34.2,97.4,-99.1
IWG1,2017-08-18T16:02:05.000Z,34.9206102267,-117.874985095,,699,2243.8,-0.8,0,0,0,0,0,197.1,197,0,0.7,-0.9,,,47.3,,47.2,933.7,0,919.7,0,,,57,34.2,97.4,-99.1
IWG1,2017-08-18T16:02:08.000Z,34.9206102267,-117.874985095,,699,2237.1,-0.8,0,0,0,0,0,197.1,197,0,0.7,-0.9,,,47.2,,47.3,934,0,919,0,,,57,34.2,97.4,-99.1
IWG1,2017-08-18T16:02:12.000Z,34.9206102267,-117.874985095,,699,2239,-0.8,0,0,0,0,0,197.1,197,0,0.7,-0.9,,,47.3,,47.3,933.9,0,918.6,0,,,57,34.2,97.4,-99.1
IWG1,2017-08-18T16:02:15.000Z,34.9206102267,-117.874985095,,699,2242.9,-0.9,0,0,0,0,0,197.1,197,0,0.7,-0.9,,,47.3,,47.3,933.8,0,919.3,0,,,57,34.2,97.4,-99.1
IWG1,2017-08-18T16:02:18.000Z,34.9206101429,-117.874985095,,699,2249.1,-0.8,0,0,0,0,0,197.1,197,0,0.7,-0.9,,,47.3,,47.3,933.6,0,917.5,0,,,57,34.2,97.4,-99
IWG1,2017-08-18T16:02:21.000Z,34.9206101429,-117.874985095,,699,2245.8,-0.9,0,0,0,0,0,197.1,197,0,0.7,-0.9,,,47.3,,47.3,933.7,0,918.8,0,,,57,34.3,97.5,-99
IWG1,2017-08-18T16:02:25.000Z,34.9206101429,-117.874985179,,699,2243.8,-1.1,0,0,0,0,0,197.1,197,0,0.7,-0.9,,,47.3,,47.3,933.7,0,918.3,0,,,56.9,34.3,97.5,-99
IWG1,2017-08-18T16:02:28.000Z,34.9206102267,-117.874985263,,699,2241.9,-1.2,0,0,0,0,0,197.1,197,0,0.7,-0.9,,,47.3,,47.3,933.8,0,918.2,0,,,56.9,34.3,97.5,-99
IWG1,2017-08-18T16:02:31.000Z,34.9206102267,-117.874985347,,699,2239,-1.2,0,0,0,0,0,197.1,197,0,0.7,-0.9,,,47.3,,47.3,933.9,0,919.9,0,,,56.9,34.3,97.5,-99
IWG1,2017-08-18T16:02:34.000Z,34.9206101429,-117.874985263,,699,2246.2,-1.1,0,0,0,0,0,197.1,197,0,0.7,-0.9,,,47.3,,47.3,933.7,0,918.6,0,,,56.9,34.3,97.5,-99
IWG1,2017-08-18T16:02:38.000Z,34.9206101429,-117.874985347,,699,2237.6,-1,0,0,0,0,0,197.1,197,0,0.7,-0.9,,,47.3,,47.3,934,0,920.1,0,,,56.9,34.3,97.5,-99
IWG1,2017-08-18T16:02:41.000Z,34.9206100591,-117.87498543,,698.9,2250.6,-0.9,0,0,0,0,0,197.1,197,0,0.7,-0.9,,,47.2,,47.3,933.5,0,919.3,0,,,56.9,34.3,97.5,-99
IWG1,2017-08-18T16:02:44.000Z,34.9206101429,-117.87498543,,698.9,2240.5,-0.7,0,0,0,0,0,197.1,197,0,0.7,-0.9,,,47.2,,47.3,933.9,0,917.8,0,,,56.9,34.3,97.5,-99
IWG1,2017-08-18T16:02:47.000Z,34.9206100591,-117.87498543,,698.9,2245.8,-0.9,0,0,0,0,0,197.1,197,0,0.7,-0.9,,,47.2,,47.2,933.7,0,918.5,0,,,56.9,34.3,97.5,-99
IWG1,2017-08-18T16:02:51.000Z,34.9206100591,-117.87498543,,698.9,2250.6,-1.2,0,0,0,0,0,197.1,197,0,0.7,-0.9,,,47.2,,47.2,933.5,0,919.4,0,,,56.9,34.4,97.5,-99
IWG1,2017-08-18T16:02:54.000Z,34.9206101429,-117.874985598,,698.9,2244.8,-1.4,0,0,0,0,0,197.1,197,0,0.7,-0.9,,,47.2,,47.2,933.7,0,919.6,0,,,56.8,34.4,97.5,-98.9
IWG1,2017-08-18T16:02:57.000Z,34.9206101429,-117.874985598,,698.9,2241.4,-1.3,0,0,0,0,0,197.1,197,0,0.7,-0.9,,,47.2,,47.2,933.8,0,919.7,0,,,56.8,34.4,97.6,-98.9
IWG1,2017-08-18T16:03:00.000Z,34.9206101429,-117.874985682,,698.9,2234.7,-1.1,0,0,0,0,0,197.1,197,0,0.7,-0.9,,,47.2,,47.2,934.1,0,918.6,0,,,56.8,34.4,97.6,-98.9
IWG1,2017-08-18T16:03:04.000Z,34.9206102267,-117.874985682,,698.9,2239.5,-0.9,0,0,0,0,0,197.1,197,0,0.7,-0.9,,,47.2,,47.2,933.9,0,921.2,0,,,56.8,34.4,97.6,-98.9
IWG1,2017-08-18T16:03:07.000Z,34.9206102267,-117.874985766,,698.9,2236.6,-0.9,0,0,0,0,0,197.1,197,0,0.7,-0.9,,,47.1,,47.2,934,0,919.4,0,,,56.8,34.4,97.6,-98.9
IWG1,2017-08-18T16:03:10.000Z,34.9206102267,-117.874985766,,698.9,2243.8,-1.1,0,0,0,0,0,197.1,197,0,0.7,-0.9,,,47.2,,47.2,933.7,0,919.3,0,,,56.8,34.4,97.6,-98.9
IWG1,2017-08-18T16:03:13.000Z,34.9206102267,-117.87498585,,698.9,2247.2,-1,0,0,0,0,0,197.1,197,0,0.7,-0.9,,,47.2,,47.2,933.6,0,920.4,0,,,56.8,34.4,97.6,-98.9
IWG1,2017-08-18T16:03:17.000Z,34.9206102267,-117.874986017,,698.9,2244.8,-1,0,0,0,0,0,197.1,197,0,0.7,-0.9,,,47.2,,47.1,933.7,0,919.3,0,,,56.8,34.4,97.6,-98.9
IWG1,2017-08-18T16:03:20.000Z,34.9206102267,-117.874986101,,698.9,2240.9,-0.7,0,0,0,0,0,197.1,197,0,0.7,-0.9,,,47.2,,47.2,933.8,0,917.5,0,,,56.8,34.5,97.6,-98.9
IWG1,2017-08-18T16:03:23.000Z,34.9206102267,-117.874986185,,698.9,2243.4,-1.1,0,0,0,0,0,197.1,197,0,0.7,-0.9,,,47.1,,47.2,933.8,0,920.1,0,,,56.7,34.5,97.6,-98.9
IWG1,2017-08-18T16:03:27.000Z,34.9206103105,-117.874986269,,698.9,2239.5,-1,0,0,0,0,0,197.1,197,0,0.7,-0.9,,,47.1,,47.1,933.9,0,918.6,0,,,56.7,34.5,97.6,-98.9
IWG1,2017-08-18T16:03:30.000Z,34.9206103105,-117.874986269,,698.9,2238,-1.1,0,0,0,0,0,197.1,197,0,0.7,-0.9,,,47.1,,47.1,933.9,0,919,0,,,56.7,34.5,97.6,-98.8
IWG1,2017-08-18T16:03:33.000Z,34.9206103105,-117.874986269,,698.9,2243.4,-1,0,0,0,0,0,197.1,197,0,0.7,-0.9,,,47.1,,47.1,933.8,0,920.5,0,,,56.7,34.5,97.7,-98.8
IWG1,2017-08-18T16:03:36.000Z,34.9206103943,-117.874986436,,698.9,2237.1,-1.1,0,0,0,0,0,197.1,197,0,0.7,-0.9,,,47.1,,47.1,934,0,919.1,0,,,56.7,34.5,97.7,-98.8
IWG1,2017-08-18T16:03:40.000Z,34.9206103943,-117.874986436,,698.9,2243.4,-1.2,0,0,0,0,0,197.1,197,0,0.7,-0.9,,,47.1,,47.1,933.8,0,920.5,0,,,56.7,34.5,97.7,-98.8
IWG1,2017-08-18T16:03:43.000Z,34.9206103105,-117.874986436,,698.9,2235.2,-1.2,0,0,0,0,0,197.1,197,0,0.7,-0.9,,,47.1,,47.1,934,0,919.6,0,,,56.7,34.5,97.7,-98.8
IWG1,2017-08-18T16:03:46.000Z,34.9206103943,-117.874986436,,698.9,2240,-1.3,0,0,0,0,0,197.1,197,0,0.7,-0.9,,,47.1,,47.1,933.9,0,918.8,0,,,56.7,34.5,97.7,-98.8
IWG1,2017-08-18T16:03:49.000Z,34.9206104781,-117.874986436,,698.9,2236.1,-1,0,0,0,0,0,197.1,197,0,0.7,-0.9,,,47.1,,47.1,934,0,919.9,0,,,56.7,34.6,97.7,-98.8
IWG1,2017-08-18T16:03:53.000Z,34.920610562,-117.87498652,,698.9,2242.9,-1.3,0,0,0,0,0,197.1,197,0,0.7,-0.9,,,47.1,,47.1,933.8,0,919.7,0,,,56.6,34.6,97.7,-98.8
IWG1,2017-08-18T16:03:56.000Z,34.9206106458,-117.874986604,,698.9,2244.8,-0.8,0,0,0,0,0,197.1,197,0,0.7,-0.9,,,47.1,,47.1,933.7,0,918.8,0,,,56.6,34.6,97.7,-98.8
IWG1,2017-08-18T16:03:59.000Z,34.920610562,-117.874986604,,698.9,2242.4,-1.1,0,0,0,0,0,197.1,197,0,0.7,-0.9,,,47.1,,47.1,933.8,0,919.9,0,,,56.6,34.6,97.7,-98.8
IWG1,2017-08-18T16:04:02.000Z,34.9206106458,-117.874986604,,698.9,2237.6,-1.1,0,0,0,0,0,197.1,197,0,0.7,-0.9,,,47.1,,47.1,934,0,919.6,0,,,56.6,34.6,97.7,-98.7
IWG1,2017-08-18T16:04:06.000Z,34.9206106458,-117.874986604,,698.9,2244.3,-1.5,0,0,0,0,0,197.1,197,0,0.7,-0.9,,,47.1,,47.1,933.7,0,920.5,0,,,56.6,34.6,97.7,-98.7
IWG1,2017-08-18T16:04:09.000Z,34.9206107296,-117.874986604,,698.9,2242.4,-1.2,0,0,0,0,0,197.1,197,0,0.7,-0.9,,,47.1,,47.1,933.8,0,918.8,0,,,56.6,34.6,97.7,-98.7
IWG1,2017-08-18T16:04:12.000Z,34.9206107296,-117.874986604,,698.9,2237.6,-1.1,0,0,0,0,0,197.1,197,0,0.7,-0.9,,,47.1,,47.1,934,0,917.7,0,,,56.6,34.6,97.8,-98.7
IWG1,2017-08-18T16:04:15.000Z,34.9206106458,-117.874986604,,698.9,2246.7,-1.1,0,0,0,0,0,197.1,197,0,0.7,-0.9,,,47.1,,47.1,933.6,0,919.3,0,,,56.6,34.6,97.8,-98.7
IWG1,2017-08-18T16:04:19.000Z,34.920610562,-117.874986688,,698.9,2240,-1.1,0,0,0,0,0,197.1,197,0,0.7,-0.9,,,47.1,,47.1,933.9,0,918.5,0,,,56.6,34.7,97.8,-98.7
IWG1,2017-08-18T16:04:22.000Z,34.9206104781,-117.874986688,,699,2254,-1.3,0,0,0,0,0,197.1,197,0,0.7,-0.9,,,47.1,,47.1,933.4,0,919.6,0,,,56.5,34.7,97.8,-98.7
IWG1,2017-08-18T16:04:25.000Z,34.9206104781,-117.874986688,,699,2240.9,-1.3,0,0,0,0,0,197.1,197,0,0.7,-0.9,,,47.1,,47.2,933.8,0,917.5,0,,,56.5,34.7,97.8,-98.7
IWG1,2017-08-18T16:04:28.000Z,34.9206103943,-117.874986688,,699,2248.7,-1,0,0,0,0,0,197.1,197,0,0.7,-0.9,,,47.2,,47.2,933.6,0,919.6,0,,,56.5,34.7,97.8,-98.7
IWG1,2017-08-18T16:04:32.000Z,34.9206103105,-117.874986688,,699,2244.3,-0.8,0,0,0,0,0,197.1,197,0,0.7,-0.9,,,47.2,,47.2,933.7,0,920.4,0,,,56.5,34.7,97.8,-98.7
IWG1,2017-08-18T16:04:35.000Z,34.9206103105,-117.874986772,,699,2238.5,-0.7,0,0,0,0,0,197.1,197,0,0.7,-0.9,,,47.2,,47.2,933.9,0,918.5,0,,,56.5,34.7,97.8,-98.7
IWG1,2017-08-18T16:04:38.000Z,34.9206102267,-117.874986855,,699.1,2244.3,-0.9,0,0,0,0,0,197.1,197,0,0.7,-0.9,,,47.2,,47.2,933.7,0,917.5,0,,,56.5,34.7,97.8,-98.6
IWG1,2017-08-18T16:04:41.000Z,34.9206102267,-117.874986855,,699.1,2247.7,-1,0,0,0,0,0,197.1,197,0,0.7,-0.9,,,47.2,,47.2,933.6,0,917.7,0,,,56.5,34.7,97.8,-98.6
IWG1,2017-08-18T16:04:45.000Z,34.9206101429,-117.874986939,,699.1,2243.8,-0.9,0,0,0,0,0,197.1,197,0,0.7,-0.9,,,47.3,,47.3,933.7,0,918.5,0,,,56.5,34.7,97.8,-98.6
IWG1,2017-08-18T16:04:48.000Z,34.9206101429,-117.874986939,,699.1,2239,-1.2,0,0,0,0,0,197.1,197,0,0.7,-0.9,,,47.3,,47.2,933.9,0,919.9,0,,,56.5,34.7,97.9,-98.6
IWG1,2017-08-18T16:04:51.000Z,34.9206100591,-117.874987023,,699.1,2240.5,-1,0,0,0,0,0,197.1,197,0,0.7,-0.9,,,47.3,,47.3,933.9,0,918,0,,,56.4,34.8,97.9,-98.6
IWG1,2017-08-18T16:04:54.000Z,34.9206100591,-117.874987023,,699.1,2235.2,-1.1,0,0,0,0,0,197.1,197,0,0.7,-0.9,,,47.3,,47.3,934,0,919.9,0,,,56.4,34.8,97.9,-98.6
IWG1,2017-08-18T16:04:58.000Z,34.9206099752,-117.874987107,,699.1,2239.5,-1.1,0,0,0,0,0,197.1,197,0,0.7,-0.9,,,47.3,,47.3,933.9,0,919.6,0,,,56.4,34.8,97.9,-98.6
IWG1,2017-08-18T16:05:01.000Z,34.9206099752,-117.874987191,,699.1,2240,-1.2,0,0,0,0,0,197.1,197,0,0.7,-0.9,,,47.3,,47.3,933.9,0,918.8,0,,,56.4,34.8,97.9,-98.6
IWG1,2017-08-18T16:05:04.000Z,34.9206098076,-117.874987191,,699.1,2249.1,-0.8,0,0,0,0,0,197.1,197,0,0.7,-0.9,,,47.3,,47.3,933.6,0,919.4,0,,,56.4,34.8,97.9,-98.6
IWG1,2017-08-18T16:05:07.000Z,34.9206098076,-117.874987191,,699.1,2240.9,-0.6,0,0,0,0,0,197.1,197,0,0.7,-0.9,,,47.3,,47.3,933.8,0,919.1,0,,,56.4,34.8,97.9,-98.6
IWG1,2017-08-18T16:05:11.000Z,34.9206098076,-117.874987274,,699.1,2244.3,-0.7,0,0,0,0,0,197.1,197,0,0.7,-0.9,,,47.4,,47.4,933.7,0,917.8,0,,,56.4,34.8,97.9,-98.6
IWG1,2017-08-18T16:05:14.000Z,34.9206097238,-117.874987358,,699.1,2244.8,-0.6,0,0,0,0,0,197.1,197,0,0.7,-0.9,,,47.3,,47.4,933.7,0,918,0,,,56.4,34.8,97.9,-98.5
IWG1,2017-08-18T16:05:17.000Z,34.9206097238,-117.874987358,,699.2,2242.9,-0.7,0,0,0,0,0,197.1,197,0,0.7,-0.9,,,47.4,,47.4,933.8,0,919.1,0,,,56.4,34.8,97.9,-98.5
IWG1,2017-08-18T16:05:20.000Z,34.92060964,-117.874987358,,699.2,2243.4,-0.9,0,0,0,0,0,197.1,197,0,0.7,-0.9,,,47.4,,47.4,933.8,0,918.5,0,,,56.3,34.9,97.9,-98.5
IWG1,2017-08-18T16:05:24.000Z,34.9206095561,-117.874987358,,699.2,2241.9,-0.9,0,0,0,0,0,197.1,197,0,0.7,-0.9,,,47.4,,47.4,933.8,0,919.6,0,,,56.3,34.9,97.9,-98.5
IWG1,2017-08-18T16:05:27.000Z,34.9206095561,-117.874987442,,699.2,2244.8,-1.1,0,0,0,0,0,197.1,197,0,0.7,-0.9,,,47.4,,47.4,933.7,0,917.8,0,,,56.3,34.9,98,-98.5
IWG1,2017-08-18T16:05:30.000Z,34.9206095561,-117.874987442,,699.2,2240.9,-1.2,0,0,0,0,0,197.1,197,0,0.7,-0.9,,,47.4,,47.5,933.8,0,917.7,0,,,56.3,34.9,98,-98.5
IWG1,2017-08-18T16:05:33.000Z,34.9206094723,-117.874987442,,699.3,2243.8,-1,0,0,0,0,0,197.1,197,0,0.7,-0.9,,,47.5,,47.5,933.7,0,919.6,0,,,56.3,34.9,98,-98.5
IWG1,2017-08-18T16:05:37.000Z,34.9206094723,-117.874987358,,699.3,2245.3,-0.9,0,0,0,0,0,197.1,197,0,0.7,-0.9,,,47.5,,47.5,933.7,0,919.9,0,,,56.3,34.9,98,-98.5
IWG1,2017-08-18T16:05:40.000Z,34.9206093047,-117.874987442,,699.3,2244.8,-0.9,0,0,0,0,0,197.1,197,0,0.7,-0.9,,,47.5,,47.5,933.7,0,917.7,0,,,56.3,34.9,98,-98.5
IWG1,2017-08-18T16:05:43.000Z,34.9206093047,-117.874987526,,699.3,2237.6,-0.9,0,0,0,0,0,197.1,197,0,0.7,-0.9,,,47.5,,47.5,934,0,919.6,0,,,56.3,34.9,98,-98.5
IWG1,2017-08-18T16:05:46.000Z,34.9206090532,-117.874987526,,699.4,2241.9,-1,0,0,0,0,0,197.1,197,0,0.7,-0.9,,,47.5,,47.5,933.8,0,919.9,0,,,56.3,34.9,98,-98.5
IWG1,2017-08-18T16:05:50.000Z,34.9206088018,-117.87498761,,699.4,2243.4,-0.8,0,0,0,0,0,197.1,197,0,0.7,-0.9,,,47.5,,47.5,933.8,0,918.3,0,,,56.2,35,98,-98.4
IWG1,2017-08-18T16:05:53.000Z,34.9206086341,-117.87498761,,699.4,2238.5,-1,0,0,0,0,0,197.1,197,0,0.7,-0.9,,,47.6,,47.6,933.9,0,919.1,0,,,56.2,35,98,-98.4
IWG1,2017-08-18T16:05:56.000Z,34.9206084665,-117.874987694,,699.4,2243.4,-1.1,0,0,0,0,0,197.1,197,0,0.7,-0.9,,,47.6,,47.5,933.8,0,919.3,0,,,56.2,35,98,-98.4
IWG1,2017-08-18T16:05:59.000Z,34.9206084665,-117.874987777,,699.4,2238,-0.9,0,0,0,0,0,197.1,197,0,0.7,-0.9,,,47.6,,47.5,933.9,0,919.1,0,,,56.2,35,98,-98.4
IWG1,2017-08-18T16:06:03.000Z,34.9206082989,-117.874987861,,699.5,2241.9,-1,0,0,0,0,0,197.1,197,0,0.7,-0.9,,,47.6,,47.6,933.8,0,919,0,,,56.2,35,98.1,-98.4
IWG1,2017-08-18T16:06:06.000Z,34.9206080474,-117.874987861,,699.5,2236.6,-1.1,0,0,0,0,0,197.1,197,0,0.7,-0.9,,,47.6,,47.6,934,0,919.4,0,,,56.2,35,98.1,-98.4
IWG1,2017-08-18T16:06:09.000Z,34.9206077959,-117.874988029,,699.6,2249.6,-1.3,0,0,0,0,0,197.1,197,0,0.7,-0.9,,,47.6,,47.6,933.5,0,918.3,0,,,56.2,35,98.1,-98.4
IWG1,2017-08-18T16:06:12.000Z,34.9206075445,-117.874988113,,699.6,2249.1,-1.1,0,0,0,0,0,197.1,197,0,0.7,-0.9,,,47.6,,47.6,933.6,0,917.7,0,,,56.2,35,98.1,-98.4
IWG1,2017-08-18T16:06:16.000Z,34.9206073768,-117.87498828,,699.6,2244.8,-1,0,0,0,0,0,197.1,197,0,0.7,-0.9,,,47.7,,47.6,933.7,0,919.4,0,,,56.2,35,98.1,-98.4
IWG1,2017-08-18T16:06:19.000Z,34.9206073768,-117.87498828,,699.6,2246.2,-1,0,0,0,0,0,197.1,197,0,0.7,-0.9,,,47.7,,47.6,933.7,0,919.9,0,,,56.1,35.1,98.1,-98.4
IWG1,2017-08-18T16:06:22.000Z,34.9206071254,-117.874988364,,699.7,2236.6,-0.6,0,0,0,0,0,197.1,197,0,0.7,-0.9,,,47.7,,47.7,934,0,918.8,0,,,56.1,35.1,98.1,-98.4
IWG1,2017-08-18T16:06:25.000Z,34.9206069577,-117.874988448,,699.7,2232.7,-0.8,0,0,0,0,0,197.1,197,0,0.7,-0.9,,,47.7,,47.7,934.1,0,919.7,0,,,56.1,35.1,98.1,-98.3
IWG1,2017-08-18T16:06:29.000Z,34.9206067063,-117.874988448,,699.7,2240.9,-0.9,0,0,0,0,0,197.1,197,0,0.7,-0.9,,,47.7,,47.7,933.8,0,919,0,,,56.1,35.1,98.1,-98.3
IWG1,2017-08-18T16:06:32.000Z,34.9206065387,-117.874988616,,699.7,2240.5,-1.1,0,0,0,0,0,197.1,197,0,0.7,-0.9,,,47.7,,47.7,933.9,0,919.9,0,,,56.1,35.1,98.1,-98.3
IWG1,2017-08-18T16:06:35.000Z,34.9206065387,-117.874988616,,699.7,2244.8,-1.4,0,0,0,0,0,197.1,197,0,0.7,-0.9,,,47.8,,47.8,933.7,0,919.9,0,,,56.1,35.1,98.1,-98.3
IWG1,2017-08-18T16:06:39.000Z,34.9206062872,-117.874988699,,699.8,2238,-1.1,0,0,0,0,0,197.1,197,0,0.7,-0.9,,,47.8,,47.8,933.9,0,918.8,0,,,56.1,35.1,98.2,-98.3
IWG1,2017-08-18T16:06:42.000Z,34.9206060357,-117.874988699,,699.8,2242.4,-1.1,0,0,0,0,0,197.1,197,0,0.7,-0.9,,,47.8,,47.8,933.8,0,919.7,0,,,56.1,35.1,98.2,-98.3
IWG1,2017-08-18T16:06:45.000Z,34.9206057843,-117.874988699,,699.9,2235.2,-1.1,0,0,0,0,0,197.1,197,0,0.7,-0.9,,,47.8,,47.8,934,0,919,0,,,56.1,35.1,98.2,-98.3
IWG1,2017-08-18T16:06:48.000Z,34.9206056166,-117.874988699,,699.9,2234.7,-1,0,0,0,0,0,197.1,197,0,0.7,-0.9,,,47.9,,47.9,934.1,0,919,0,,,56,35.2,98.2,-98.3
IWG1,2017-08-18T16:06:52.000Z,34.9206055328,-117.874988699,,700,2234.2,-0.8,0,0,0,0,0,197.1,197,0,0.7,-0.9,,,47.9,,47.9,934.1,0,918.6,0,,,56,35.2,98.2,-98.3
IWG1,2017-08-18T16:06:55.000Z,34.9206055328,-117.874988783,,700,2236.6,-0.8,0,0,0,0,0,197.1,197,0,0.7,-0.9,,,47.9,,47.9,934,0,917.1,0,,,56,35.2,98.2,-98.3
IWG1,2017-08-18T16:06:58.000Z,34.9206053652,-117.874988867,,700,2233.7,-0.8,0,0,0,0,0,197.1,197,0,0.7,-0.9,,,48,,48,934.1,0,919.4,0,,,56,35.2,98.2,-98.3
IWG1,2017-08-18T16:07:01.000Z,34.9206051137,-117.874988867,,700,2245.8,-1.1,0,0,0,0,0,197.1,197,0,0.7,-0.9,,,48,,48,933.7,0,919.4,0,,,56,35.2,98.2,-98.2
IWG1,2017-08-18T16:07:05.000Z,34.9206049461,-117.874988951,,700,2240.9,-0.7,0,0,0,0,0,197.1,197,0,0.7,-0.9,,,48,,48,933.8,0,919.9,0,,,56,35.2,98.2,-98.2
IWG1,2017-08-18T16:07:08.000Z,34.9206047785,-117.874989035,,700.1,2237.6,-0.7,0,0,0,0,0,197.1,197,0,0.7,-0.9,,,48,,48,934,0,919.1,0,,,56,35.2,98.2,-98.2
IWG1,2017-08-18T16:07:11.000Z,34.9206046946,-117.874989035,,700.1,2243.4,-0.9,0,0,0,0,0,197.1,197,0,0.7,-0.9,,,48.1,,48.1,933.8,0,919.1,0,,,56,35.2,98.2,-98.2
IWG1,2017-08-18T16:07:14.000Z,34.9206046108,-117.874989118,,700.1,2242.9,-1.1,0,0,0,0,0,197.1,197,0,0.7,-0.9,,,48.1,,48.1,933.8,0,919.9,0,,,56,35.2,98.2,-98.2
IWG1,2017-08-18T16:07:18.000Z,34.9206044432,-117.874989286,,700.2,2236.1,-1,0,0,0,0,0,197.1,197,0,0.7,-0.9,,,48.1,,48.1,934,0,918.6,0,,,55.9,35.3,98.3,-98.2
IWG1,2017-08-18T16:07:21.000Z,34.9206043594,-117.87498937,,700.2,2243.8,-1.1,0,0,0,0,0,197.1,197,0,0.7,-0.9,,,48.1,,48.2,933.7,0,918.8,0,,,55.9,35.3,98.3,-98.2
IWG1,2017-08-18T16:07:24.000Z,34.9206041917,-117.874989537,,700.3,2233.2,-1,0,0,0,0,0,197.1,197,0,0.7,-0.9,,,48.2,,48.1,934.1,0,919.9,0,,,55.9,35.3,98.3,-98.2
IWG1,2017-08-18T16:07:27.000Z,34.9206041917,-117.874989537,,700.3,2235.6,-0.8,0,0,0,0,0,197.1,197,0,0.7,-0.9,,,48.2,,48.2,934,0,918.6,0,,,55.9,35.3,98.3,-98.2
IWG1,2017-08-18T16:07:31.000Z,34.9206040241,-117.874989705,,700.3,2244.8,-1.3,0,0,0,0,0,197.1,197,0,0.7,-0.9,,,48.2,,48.2,933.7,0,920.1,0,,,55.9,35.3,98.3,-98.2
IWG1,2017-08-18T16:07:34.000Z,34.9206038564,-117.874989789,,700.4,2248.2,-0.9,0,0,0,0,0,197.1,197,0,0.7,-0.9,,,48.2,,48.2,933.6,0,920.1,0,,,55.9,35.3,98.3,-98.2
IWG1,2017-08-18T16:07:37.000Z,34.9206036888,-117.874989873,,700.4,2239.5,-1,0,0,0,0,0,197.1,197,0,0.7,-0.9,,,48.2,,48.2,933.9,0,919.1,0,,,55.9,35.3,98.3,-98.1
IWG1,2017-08-18T16:07:40.000Z,34.920603605,-117.87499004,,700.4,2243.4,-0.8,0,0,0,0,0,197.1,197,0,0.7,-0.9,,,48.2,,48.2,933.8,0,919.3,0,,,55.9,35.3,98.3,-98.1
IWG1,2017-08-18T16:07:44.000Z,34.9206035212,-117.874990124,,700.4,2242.9,-0.9,0,0,0,0,0,197.1,197,0,0.7,-0.9,,,48.3,,48.3,933.8,0,918.5,0,,,55.9,35.3,98.3,-98.1
IWG1,2017-08-18T16:07:47.000Z,34.9206034373,-117.874990124,,700.4,2249.6,-1.1,0,0,0,0,0,197.1,197,0,0.7,-0.9,,,48.3,,48.3,933.5,0,919,0,,,55.8,35.4,98.3,-98.1
IWG1,2017-08-18T16:07:50.000Z,34.9206033535,-117.874990208,,700.5,2238,-1.1,0,0,0,0,0,197.1,197,0,0.7,-0.9,,,48.3,,48.3,933.9,0,919.1,0,,,55.8,35.4,98.3,-98.1
IWG1,2017-08-18T16:07:54.000Z,34.9206031859,-117.874990292,,700.5,2243.8,-1,0,0,0,0,0,197.1,197,0,0.7,-0.9,,,48.3,,48.3,933.7,0,920.4,0,,,55.8,35.4,98.4,-98.1
IWG1,2017-08-18T16:07:57.000Z,34.9206031021,-117.874990459,,700.5,2241.4,-1,0,0,0,0,0,197.1,197,0,0.7,-0.9,,,48.4,,48.4,933.8,0,918.3,0,,,55.8,35.4,98.4,-98.1
IWG1,2017-08-18T16:08:00.000Z,34.9206030183,-117.874990627,,700.6,2236.6,-1,0,0,0,0,0,197.1,197,0,0.7,-0.9,,,48.4,,48.4,934,0,917.5,0,,,55.8,35.4,98.4,-98.1
IWG1,2017-08-18T16:08:03.000Z,34.9206030183,-117.874990627,,700.6,2244.8,-1,0,0,0,0,0,197.1,197,0,0.7,-0.9,,,48.4,,48.4,933.7,0,919.6,0,,,55.8,35.4,98.4,-98.1
IWG1,2017-08-18T16:08:07.000Z,34.9206028506,-117.874990795,,700.6,2233.2,-1,0,0,0,0,0,197.1,197,0,0.7,-0.9,,,48.4,,48.4,934.1,0,918.5,0,,,55.8,35.4,98.4,-98.1
IWG1,2017-08-18T16:08:10.000Z,34.920602683,-117.874990962,,700.7,2240,-0.7,0,0,0,0,0,197.1,197,0,0.7,-0.9,,,48.4,,48.4,933.9,0,920.2,0,,,55.8,35.4,98.4,-98.1
IWG1,2017-08-18T16:08:13.000Z,34.9206025992,-117.87499113,,700.7,2245.8,-0.8,0,0,0,0,0,197.1,197,0,0.7,-0.9,,,48.5,,48.4,933.7,0,919,0,,,55.8,35.4,98.4,-98
IWG1,2017-08-18T16:08:16.000Z,34.9206024315,-117.874991214,,700.7,2247.7,-0.5,0,0,0,0,0,197.1,197,0,0.7,-0.9,,,48.5,,48.5,933.6,0,919.4,0,,,55.8,35.5,98.4,-98
IWG1,2017-08-18T16:08:20.000Z,34.9206023477,-117.874991381,,700.7,2243.8,-1.2,0,0,0,0,0,197.1,197,0,0.7,-0.9,,,48.5,,48.5,933.7,0,919.7,0,,,55.7,35.5,98.4,-98
IWG1,2017-08-18T16:08:23.000Z,34.9206022639,-117.874991381,,700.7,2243.8,-1.1,0,0,0,0,0,197.1,197,0,0.7,-0.9,,,48.5,,48.5,933.7,0,919,0,,,55.7,35.5,98.4,-98
IWG1,2017-08-18T16:08:26.000Z,34.9206021801,-117.874991633,,700.8,2249.1,-1.1,0,0,0,0,0,197.1,197,0,0.7,-0.9,,,48.6,,48.5,933.6,0,918.8,0,,,55.7,35.5,98.4,-98
IWG1,2017-08-18T16:08:29.000Z,34.9206020962,-117.874991801,,700.8,2235.2,-0.8,0,0,0,0,0,197.1,197,0,0.7,-0.9,,,48.6,,48.6,934,0,918.6,0,,,55.7,35.5,98.5,-98
IWG1,2017-08-18T16:08:33.000Z,34.9206019286,-117.874991968,,700.8,2234.7,-0.9,0,0,0,0,0,197.1,197,0,0.7,-0.9,,,48.6,,48.6,934.1,0,918.3,0,,,55.7,35.5,98.5,-98
IWG1,2017-08-18T16:08:36.000Z,34.920601761,-117.874992136,,700.9,2237.6,-1.1,0,0,0,0,0,197.1,197,0,0.7,-0.9,,,48.6,,48.6,934,0,919.7,0,,,55.7,35.5,98.5,-98
IWG1,2017-08-18T16:08:39.000Z,34.920601761,-117.87499222,,700.9,2237.1,-0.9,0,0,0,0,0,197.1,197,0,0.7,-0.9,,,48.6,,48.6,934,0,918.2,0,,,55.7,35.5,98.5,-98
IWG1,2017-08-18T16:08:42.000Z,34.9206015933,-117.874992304,,700.9,2244.3,-1,0,0,0,0,0,197.1,197,0,0.7,-0.9,,,48.6,,48.6,933.7,0,917.8,0,,,55.7,35.5,98.5,-98
IWG1,2017-08-18T16:08:46.000Z,34.9206013419,-117.874992387,,700.9,2236.1,-1.1,0,0,0,0,0,197.1,197,0,0.7,-0.9,,,48.6,,48.6,934,0,919.4,0,,,55.6,35.6,98.5,-98
IWG1,2017-08-18T16:08:49.000Z,34.9206012581,-117.874992471,,700.9,2236.1,-1,0,0,0,0,0,197.1,197,0,0.7,-0.9,,,48.6,,48.7,934,0,918.2,0,,,55.6,35.6,98.5,-97.9
IWG1,2017-08-18T16:08:52.000Z,34.9206012581,-117.874992555,,700.9,2248.7,-1.2,0,0,0,0,0,197.1,197,0,0.7,-0.9,,,48.6,,48.6,933.6,0,919.1,0,,,55.6,35.6,98.5,-97.9
IWG1,2017-08-18T16:08:55.000Z,34.9206011742,-117.874992639,,700.9,2243.4,-1.1,0,0,0,0,0,197.1,197,0,0.7,-0.9,,,48.6,,48.6,933.8,0,920.4,0,,,55.6,35.6,98.5,-97.9
IWG1,2017-08-18T16:08:59.000Z,34.9206010904,-117.874992807,,701,2240.9,-1,0,0,0,0,0,197.1,197,0,0.7,-0.9,,,48.6,,48.6,933.8,0,918,0,,,55.6,35.6,98.5,-97.9
IWG1,2017-08-18T16:09:02.000Z,34.9206010066,-117.874992974,,701,2248.2,-1.2,0,0,0,0,0,197.1,197,0,0.7,-0.9,,,48.6,,48.6,933.6,0,919.1,0,,,55.6,35.6,98.5,-97.9
IWG1,2017-08-18T16:09:05.000Z,34.9206009228,-117.874993058,,701,2247.2,-1.3,0,0,0,0,0,197.1,197,0,0.7,-0.9,,,48.6,,48.6,933.6,0,918.8,0,,,55.6,35.6,98.6,-97.9
IWG1,2017-08-18T16:09:08.000Z,34.920600839,-117.874993226,,701,2240,-1.2,0,0,0,0,0,197.1,197,0,0.7,-0.9,,,48.6,,48.5,933.9,0,917.4,0,,,55.6,35.6,98.6,-97.9
IWG1,2017-08-18T16:09:12.000Z,34.9206007551,-117.874993309,,701,2238,-1.2,0,0,0,0,0,197.1,197,0,0.7,-0.9,,,48.5,,48.5,933.9,0,920.7,0,,,55.6,35.6,98.6,-97.9
IWG1,2017-08-18T16:09:15.000Z,34.9206006713,-117.874993393,,701,2236.1,-0.9,0,0,0,0,0,197.1,197,0,0.7,-0.9,,,48.5,,48.5,934,0,920.1,0,,,55.6,35.7,98.6,-97.9
IWG1,2017-08-18T16:09:18.000Z,34.9206005875,-117.874993393,,701.1,2240.9,-1,0,0,0,0,0,197.1,197,0,0.7,-0.9,,,48.4,,48.4,933.8,0,919.7,0,,,55.5,35.7,98.6,-97.9
IWG1,2017-08-18T16:09:21.000Z,34.9206005875,-117.874993561,,701.1,2251.1,-0.8,0,0,0,0,0,197.1,197,0,0.7,-0.9,,,48.4,,48.4,933.5,0,919.9,0,,,55.5,35.7,98.6,-97.9
IWG1,2017-08-18T16:09:25.000Z,34.9206005037,-117.874993561,,701.2,2245.3,-1,0,0,0,0,0,197.1,197,0,0.7,-0.9,,,48.4,,48.4,933.7,0,920.2,0,,,55.5,35.7,98.6,-97.8
IWG1,2017-08-18T16:09:28.000Z,34.9206004199,-117.874993645,,701.2,2240.5,-0.8,0,0,0,0,0,197.1,197,0,0.7,-0.9,,,48.4,,48.4,933.9,0,920.8,0,,,55.5,35.7,98.6,-97.8
IWG1,2017-08-18T16:09:31.000Z,34.9206004199,-117.874993729,,701.2,2243.8,-0.8,0,0,0,0,0,197.1,197,0,0.7,-0.9,,,48.4,,48.4,933.7,0,919.1,0,,,55.5,35.7,98.6,-97.8
IWG1,2017-08-18T16:09:35.000Z,34.920600336,-117.874993645,,701.3,2239,-0.9,0,0,0,0,0,197.1,197,0,0.7,-0.9,,,48.3,,48.3,933.9,0,918,0,,,55.5,35.7,98.6,-97.8
IWG1,2017-08-18T16:09:38.000Z,34.9206002522,-117.874993812,,701.3,2236.6,-1,0,0,0,0,0,197.1,197,0,0.7,-0.9,,,48.3,,48.3,934,0,917.4,0,,,55.5,35.7,98.6,-97.8
IWG1,2017-08-18T16:09:41.000Z,34.9206002522,-117.874993812,,701.3,2250.1,-0.9,0,0,0,0,0,197.1,197,0,0.7,-0.9,,,48.3,,48.3,933.5,0,918.8,0,,,55.5,35.7,98.6,-97.8
IWG1,2017-08-18T16:09:45.000Z,34.9206001684,-117.874993896,,701.3,2242.9,-1.1,0,0,0,0,0,197.1,197,0,0.7,-0.9,,,48.2,,48.2,933.8,0,920.2,0,,,55.5,35.8,98.7,-97.8
IWG1,2017-08-18T16:09:48.000Z,34.9206001684,-117.87499398,,701.3,2240.9,-1.2,0,0,0,0,0,197.1,197,0,0.7,-0.9,,,48.2,,48.2,933.8,0,919.7,0,,,55.4,35.8,98.7,-97.8
IWG1,2017-08-18T16:09:51.000Z,34.9206000846,-117.87499398,,701.3,2242.4,-0.9,0,0,0,0,0,197.1,197,0,0.7,-0.9,,,48.1,,48.2,933.8,0,918.3,0,,,55.4,35.8,98.7,-97.8
IWG1,2017-08-18T16:09:54.000Z,34.9206000846,-117.874994148,,701.4,2238,-0.9,0,0,0,0,0,197.1,197,0,0.7,-0.9,,,48.2,,48.2,933.9,0,918.6,0,,,55.4,35.8,98.7,-97.8
IWG1,2017-08-18T16:09:58.000Z,34.9206000008,-117.874994148,,701.4,2250.1,-0.6,0,0,0,0,0,197.1,197,0,0.7,-0.9,,,48.2,,48.2,933.5,0,918.8,0,,,55.4,35.8,98.7,-97.7
IWG1,2017-08-18T16:10:01.000Z,34.9206000008,-117.874994148,,701.4,2248.7,-1,0,0,0,0,0,197.1,197,0,0.7,-0.9,,,48.1,,48.1,933.6,0,918.2,0,,,55.4,35.8,98.7,-97.7
IWG1,2017-08-18T16:10:04.000Z,34.9205999169,-117.874994231,,701.5,2236.6,-0.9,0,0,0,0,0,197.1,197,0,0.7,-0.9,,,48.1,,48.1,934,0,919,0,,,55.4,35.8,98.7,-97.7
IWG1,2017-08-18T16:10:07.000Z,34.9205998331,-117.874994231,,701.5,2239,-0.5,0,0,0,0,0,197.1,197,0,0.7,-0.9,,,48.1,,48.1,933.9,0,919.1,0,,,55.4,35.8,98.7,-97.7
IWG1,2017-08-18T16:10:11.000Z,34.9205997493,-117.874994315,,701.5,2240.9,-1,0,0,0,0,0,197.1,197,0,0.7,-0.9,,,48,,48,933.8,0,918.8,0,,,55.4,35.8,98.7,-97.7
IWG1,2017-08-18T16:10:14.000Z,34.9205996655,-117.874994315,,701.6,2240.9,-1.1,0,0,0,0,0,197.1,197,0,0.7,-0.9,,,48,,48,933.8,0,917.2,0,,,55.4,35.8,98.7,-97.7
IWG1,2017-08-18T16:10:17.000Z,34.9205995817,-117.874994315,,701.6,2248.7,-0.9,0,0,0,0,0,197.1,197,0,0.7,-0.9,,,48,,48,933.6,0,918.2,0,,,55.3,35.9,98.7,-97.7
IWG1,2017-08-18T16:10:20.000Z,34.9205995817,-117.874994315,,701.6,2241.9,-1.1,0,0,0,0,0,197.1,197,0,0.7,-0.9,,,48,,47.9,933.8,0,919,0,,,55.3,35.9,98.8,-97.7
IWG1,2017-08-18T16:10:24.000Z,34.9205995817,-117.874994315,,701.6,2240,-1.2,0,0,0,0,0,197.1,197,0,0.7,-0.9,,,47.9,,47.9,933.9,0,919,0,,,55.3,35.9,98.8,-97.7
IWG1,2017-08-18T16:10:27.000Z,34.9205995817,-117.874994315,,701.6,2243.4,-1,0,0,0,0,0,197.1,197,0,0.7,-0.9,,,47.9,,47.9,933.8,0,917.1,0,,,55.3,35.9,98.8,-97.7
IWG1,2017-08-18T16:10:30.000Z,34.9205995817,-117.874994315,,701.6,2250.1,-0.7,0,0,0,0,0,197.1,197,0,0.7,-0.9,,,47.9,,47.9,933.5,0,920.1,0,,,55.3,35.9,98.8,-97.6
IWG1,2017-08-18T16:10:33.000Z,34.9205994979,-117.874994315,,701.7,2238,-0.9,0,0,0,0,0,197.1,197,0,0.7,-0.9,,,47.8,,47.8,933.9,0,918.8,0,,,55.3,35.9,98.8,-97.6
IWG1,2017-08-18T16:10:37.000Z,34.9205994979,-117.874994315,,701.7,2244.8,-1,0,0,0,0,0,197.1,197,0,0.7,-0.9,,,47.8,,47.8,933.7,0,919,0,,,55.3,35.9,98.8,-97.6
IWG1,2017-08-18T16:10:40.000Z,34.920599414,-117.874994399,,701.7,2245.3,-1,0,0,0,0,0,197.1,197,0,0.7,-0.9,,,47.8,,47.8,933.7,0,918.6,0,,,55.3,35.9,98.8,-97.6
IWG1,2017-08-18T16:10:43.000Z,34.9205993302,-117.874994483,,701.7,2235.2,-0.9,0,0,0,0,0,197.1,197,0,0.7,-0.9,,,47.8,,47.8,934,0,920.7,0,,,55.3,35.9,98.8,-97.6
IWG1,2017-08-18T16:10:46.000Z,34.9205993302,-117.874994483,,701.8,2235.2,-0.9,0,0,0,0,0,197.1,197,0,0.7,-0.9,,,47.8,,47.8,934,0,918.2,0,,,55.2,36,98.8,-97.6
IWG1,2017-08-18T16:10:50.000Z,34.9205993302,-117.874994483,,701.8,2239.5,-0.7,0,0,0,0,0,197.1,197,0,0.7,-0.9,,,47.8,,47.8,933.9,0,918.6,0,,,55.2,36,98.8,-97.6
IWG1,2017-08-18T16:10:53.000Z,34.9205992464,-117.874994567,,701.9,2234.2,-0.7,0,0,0,0,0,197.1,197,0,0.7,-0.9,,,47.8,,47.8,934.1,0,918.8,0,,,55.2,36,98.8,-97.6
IWG1,2017-08-18T16:10:56.000Z,34.9205993302,-117.874994567,,701.9,2240.5,-1,0,0,0,0,0,197.1,197,0,0.7,-0.9,,,47.8,,47.8,933.9,0,920.7,0,,,55.2,36,98.9,-97.6
IWG1,2017-08-18T16:11:00.000Z,34.9205993302,-117.874994567,,701.9,2246.7,-0.7,0,0,0,0,0,197.1,197,0,0.7,-0.9,,,47.8,,47.8,933.6,0,919.3,0,,,55.2,36,98.9,-97.6
IWG1,2017-08-18T16:11:03.000Z,34.9205992464,-117.87499465,,701.9,2233.7,-0.8,0,0,0,0,0,197.1,197,0,0.7,-0.9,,,47.8,,47.8,934.1,0,919.1,0,,,55.2,36,98.9,-97.6
IWG1,2017-08-18T16:11:06.000Z,34.9205992464,-117.87499465,,702,2242.4,-1.1,0,0,0,0,0,197.1,197,0,0.7,-0.9,,,47.9,,47.8,933.8,0,918.5,0,,,55.2,36,98.9,-97.5
IWG1,2017-08-18T16:11:09.000Z,34.9205992464,-117.874994818,,702,2240.5,-0.9,0,0,0,0,0,197.1,197,0,0.7,-0.9,,,47.8,,47.9,933.9,0,918.3,0,,,55.2,36,98.9,-97.5
IWG1,2017-08-18T16:11:13.000Z,34.9205992464,-117.874994902,,702,2250.6,-1.2,0,0,0,0,0,197.1,197,0,0.7,-0.9,,,47.8,,47.9,933.5,0,917.7,0,,,55.2,36,98.9,-97.5
IWG1,2017-08-18T16:11:16.000Z,34.9205992464,-117.874994902,,702,2239.5,-1,0,0,0,0,0,197.1,197,0,0.7,-0.9,,,47.9,,47.9,933.9,0,920.4,0,,,55.1,36,98.9,-97.5
IWG1,2017-08-18T16:11:19.000Z,34.9205992464,-117.874994986,,702,2242.4,-1.1,0,0,0,0,0,197.1,197,0,0.7,-0.9,,,47.9,,47.9,933.8,0,919.7,0,,,55.1,36.1,98.9,-97.5
IWG1,2017-08-18T16:11:22.000Z,34.9205991626,-117.87499507,,702,2236.6,-1.1,0,0,0,0,0,197.1,197,0,0.7,-0.9,,,47.9,,47.9,934,0,918.5,0,,,55.1,36.1,98.9,-97.5
IWG1,2017-08-18T16:11:26.000Z,34.9205990788,-117.874995237,,702.1,2234.7,-1,0,0,0,0,0,197.1,197,0,0.7,-0.9,,,47.9,,47.9,934.1,0,918.6,0,,,55.1,36.1,98.9,-97.5
